{"type":"FeatureCollection","features":[{"type":"Feature","properties":{"id":1,"year":"14","month":"12","normalized_date":0.0859375,"type":1,"ts":0.08,"freg":1,"weight":0.0,"endereco":"Rua Afonso de Albuquerque 10 3 ","entradas_repetidas":1,"host_listings_number":1},"geometry":{"type":"Point","coordinates":[-9.132494,38.709226]}},{"type":"Feature","properties":{"id":2,"year":"18","month":"10","normalized_date":0.4453125,"type":1,"ts":0.43,"freg":1,"weight":0.0,"endereco":"Cal\u00e7ada Cal\u00e7ada Agostinho de Carvalho 1 A R/C ","entradas_repetidas":1,"host_listings_number":1},"geometry":{"type":"Point","coordinates":[-9.133601,38.717711]}},{"type":"Feature","properties":{"id":3,"year":"18","month":"10","normalized_date":0.4453125,"type":3,"ts":0.43,"freg":3,"weight":0.0,"endereco":"Rua Rua A\u00e7ores 12 Rc. Esq.","entradas_repetidas":1,"host_listings_number":1},"geometry":{"type":"Point","coordinates":[-9.13863,38.73317]}},{"type":"Feature","properties":{"id":4,"year":"18","month":"11","normalized_date":0.453125,"type":1,"ts":0.44,"freg":4,"weight":0.0,"endereco":"Travessa DO PO\u00c7O DOS NEGROS 15-19 19 4\u00ba ","entradas_repetidas":1,"host_listings_number":1},"geometry":{"type":"Point","coordinates":[-9.150634,38.710709]}},{"type":"Feature","properties":{"id":5,"year":"18","month":"12","normalized_date":0.4609375,"type":1,"ts":0.45,"freg":5,"weight":0.0,"endereco":"Rua Rua Maria Pia 26A RC ESQ","entradas_repetidas":1,"host_listings_number":1},"geometry":{"type":"Point","coordinates":[-9.172036,38.708623]}},{"type":"Feature","properties":{"id":6,"year":"18","month":"10","normalized_date":0.4453125,"type":1,"ts":0.43,"freg":10,"weight":0.0,"endereco":"Rua Rua Ferreira Lapa 17 Cave ","entradas_repetidas":1,"host_listings_number":1},"geometry":{"type":"Point","coordinates":[-9.143627,38.726669]}},{"type":"Feature","properties":{"id":7,"year":"18","month":"10","normalized_date":0.4453125,"type":1,"ts":0.43,"freg":4,"weight":0.0,"endereco":"Travessa Travessa Portuguesa 11  ","entradas_repetidas":1,"host_listings_number":1},"geometry":{"type":"Point","coordinates":[-9.145671,38.70953]}},{"type":"Feature","properties":{"id":8,"year":"18","month":"10","normalized_date":0.4453125,"type":1,"ts":0.44,"freg":1,"weight":0.0,"endereco":"Cal\u00e7ada Cal\u00e7ada Conde Penafiel 20 1 E","entradas_repetidas":1,"host_listings_number":1},"geometry":{"type":"Point","coordinates":[-9.133995,38.71133]}},{"type":"Feature","properties":{"id":9,"year":"18","month":"10","normalized_date":0.4453125,"type":1,"ts":0.43,"freg":10,"weight":0.0,"endereco":"Rua Rua Salitre 189 1\u00ba Dto","entradas_repetidas":1,"host_listings_number":1},"geometry":{"type":"Point","coordinates":[-9.152727,38.719834]}},{"type":"Feature","properties":{"id":10,"year":"18","month":"10","normalized_date":0.4453125,"type":1,"ts":0.44,"freg":5,"weight":0.0,"endereco":"Beco Beco Bolacha 16A RC ","entradas_repetidas":1,"host_listings_number":1},"geometry":{"type":"Point","coordinates":[-9.164992,38.705136]}},{"type":"Feature","properties":{"id":11,"year":"18","month":"10","normalized_date":0.4453125,"type":1,"ts":0.43,"freg":4,"weight":0.0,"endereco":"Largo Largo S\u00e3o Jo\u00e3o Nepomuceno 12 2\u00ba Dto","entradas_repetidas":1,"host_listings_number":1},"geometry":{"type":"Point","coordinates":[-9.148509,38.709385]}},{"type":"Feature","properties":{"id":12,"year":"18","month":"10","normalized_date":0.4453125,"type":1,"ts":0.44,"freg":8,"weight":0.0,"endereco":"Rua Rua Gon\u00e7alves Zarco 10 1\u00ba Esq.","entradas_repetidas":1,"host_listings_number":1},"geometry":{"type":"Point","coordinates":[-9.203766,38.705757]}},{"type":"Feature","properties":{"id":13,"year":"18","month":"10","normalized_date":0.4453125,"type":1,"ts":0.43,"freg":10,"weight":0.0,"endereco":"Rua Rua Alexandre Herculano 19 4 ","entradas_repetidas":1,"host_listings_number":1},"geometry":{"type":"Point","coordinates":[-9.149127,38.722723]}},{"type":"Feature","properties":{"id":14,"year":"18","month":"10","normalized_date":0.4453125,"type":1,"ts":0.43,"freg":1,"weight":0.0,"endereco":"Rua  Escolas Gerais 24 1\u00ba ","entradas_repetidas":1,"host_listings_number":1},"geometry":{"type":"Point","coordinates":[-9.127955,38.712937]}},{"type":"Feature","properties":{"id":15,"year":"18","month":"10","normalized_date":0.4453125,"type":1,"ts":0.44,"freg":12,"weight":0.0,"endereco":"Rua Rua 10 27  ","entradas_repetidas":1,"host_listings_number":1},"geometry":{"type":"Point","coordinates":[-9.167328,38.7291]}},{"type":"Feature","properties":{"id":16,"year":"18","month":"10","normalized_date":0.4453125,"type":1,"ts":0.44,"freg":2,"weight":0.0,"endereco":"Rua Joshua Benoliel 2 7 DTO","entradas_repetidas":1,"host_listings_number":1},"geometry":{"type":"Point","coordinates":[-9.161175,38.720764]}},{"type":"Feature","properties":{"id":17,"year":"18","month":"11","normalized_date":0.453125,"type":1,"ts":0.44,"freg":17,"weight":0.0,"endereco":"Rua Rua Musas 15 3\u00ba Dt\u00ba","entradas_repetidas":1,"host_listings_number":1},"geometry":{"type":"Point","coordinates":[-9.094233,38.758219]}},{"type":"Feature","properties":{"id":18,"year":"18","month":"10","normalized_date":0.4453125,"type":1,"ts":0.43,"freg":4,"weight":0.0,"endereco":"Largo Largo Trindade Coelho 14 1\u00ba ","entradas_repetidas":1,"host_listings_number":1},"geometry":{"type":"Point","coordinates":[-9.143423,38.713015]}},{"type":"Feature","properties":{"id":19,"year":"18","month":"10","normalized_date":0.4453125,"type":1,"ts":0.44,"freg":1,"weight":0.0,"endereco":"Rua  Cruzes da S\u00e9 11 S\\L ","entradas_repetidas":1,"host_listings_number":1},"geometry":{"type":"Point","coordinates":[-9.132206,38.70947]}},{"type":"Feature","properties":{"id":20,"year":"18","month":"12","normalized_date":0.4609375,"type":1,"ts":0.45,"freg":1,"weight":0.0,"endereco":"Rua Rua Vig\u00e1rio 76 3 ","entradas_repetidas":1,"host_listings_number":1},"geometry":{"type":"Point","coordinates":[-9.127586,38.712619]}},{"type":"Feature","properties":{"id":21,"year":"18","month":"10","normalized_date":0.4453125,"type":1,"ts":0.44,"freg":19,"weight":0.0,"endereco":"Rua Rua Professor Bento de Jesus Cara\u00e7a 58 5\u00ba DT","entradas_repetidas":1,"host_listings_number":1},"geometry":{"type":"Point","coordinates":[-9.170251,38.766529]}},{"type":"Feature","properties":{"id":22,"year":"18","month":"10","normalized_date":0.4453125,"type":1,"ts":0.44,"freg":3,"weight":0.0,"endereco":"Travessa Travessa Cruz do Torel 10 r/c ","entradas_repetidas":1,"host_listings_number":1},"geometry":{"type":"Point","coordinates":[-9.140566,38.719101]}},{"type":"Feature","properties":{"id":23,"year":"18","month":"10","normalized_date":0.4453125,"type":3,"ts":0.44,"freg":16,"weight":0.0,"endereco":"Rua Rua Augusto Jos\u00e9 Vieira 21 3\u00ba Dto","entradas_repetidas":1,"host_listings_number":1},"geometry":{"type":"Point","coordinates":[-9.130118,38.72356]}},{"type":"Feature","properties":{"id":24,"year":"18","month":"10","normalized_date":0.4453125,"type":1,"ts":0.44,"freg":6,"weight":0.0,"endereco":"Rua Rua Lagares 74 1 B","entradas_repetidas":1,"host_listings_number":1},"geometry":{"type":"Point","coordinates":[-9.132796,38.717249]}},{"type":"Feature","properties":{"id":25,"year":"18","month":"11","normalized_date":0.453125,"type":1,"ts":0.44,"freg":10,"weight":0.0,"endereco":"Rua Rua Luciano Cordeiro 67 4\u00ba Dto","entradas_repetidas":1,"host_listings_number":1},"geometry":{"type":"Point","coordinates":[-9.144528,38.725301]}},{"type":"Feature","properties":{"id":26,"year":"18","month":"10","normalized_date":0.4453125,"type":1,"ts":0.44,"freg":12,"weight":0.0,"endereco":"Rua Rua Campolide 370 1 B","entradas_repetidas":1,"host_listings_number":1},"geometry":{"type":"Point","coordinates":[-9.166995,38.737137]}},{"type":"Feature","properties":{"id":27,"year":"18","month":"11","normalized_date":0.453125,"type":1,"ts":0.44,"freg":4,"weight":0.0,"endereco":"Rua Rua S\u00e3o Mar\u00e7al 62 1\u00ba ","entradas_repetidas":1,"host_listings_number":1},"geometry":{"type":"Point","coordinates":[-9.150981,38.714631]}},{"type":"Feature","properties":{"id":28,"year":"18","month":"10","normalized_date":0.4453125,"type":1,"ts":0.44,"freg":1,"weight":0.0,"endereco":"Rua  Costa do Castelo 90 3\u00ba  ","entradas_repetidas":1,"host_listings_number":1},"geometry":{"type":"Point","coordinates":[-9.133226,38.714733]}},{"type":"Feature","properties":{"id":29,"year":"18","month":"12","normalized_date":0.4609375,"type":1,"ts":0.45,"freg":1,"weight":0.0,"endereco":"1\u00aa Rua S\u00e3o Nicolau 19,21,23,2 4 B","entradas_repetidas":1,"host_listings_number":1},"geometry":{"type":"Point","coordinates":[-9.136386,38.710499]}},{"type":"Feature","properties":{"id":30,"year":"18","month":"11","normalized_date":0.453125,"type":1,"ts":0.44,"freg":1,"weight":0.0,"endereco":"Escadinhas Escadinhas Rem\u00e9dios 7  B","entradas_repetidas":1,"host_listings_number":1},"geometry":{"type":"Point","coordinates":[-9.125864,38.712769]}},{"type":"Feature","properties":{"id":31,"year":"18","month":"12","normalized_date":0.4609375,"type":1,"ts":0.45,"freg":8,"weight":0.0,"endereco":"Rua Rua Galv\u00e3o 30 R/C ESQ","entradas_repetidas":1,"host_listings_number":1},"geometry":{"type":"Point","coordinates":[-9.203529,38.703688]}},{"type":"Feature","properties":{"id":32,"year":"18","month":"10","normalized_date":0.4453125,"type":1,"ts":0.44,"freg":9,"weight":0.0,"endereco":"Rua Rua Ant\u00f3nio Patr\u00edcio 10 3 Dt.\u00ba","entradas_repetidas":1,"host_listings_number":1},"geometry":{"type":"Point","coordinates":[-9.144541,38.749856]}},{"type":"Feature","properties":{"id":33,"year":"18","month":"10","normalized_date":0.4453125,"type":1,"ts":0.44,"freg":6,"weight":0.0,"endereco":"Rua Rua Vale de Santo Ant\u00f3nio 138 2 ","entradas_repetidas":1,"host_listings_number":1},"geometry":{"type":"Point","coordinates":[-9.123864,38.719497]}},{"type":"Feature","properties":{"id":34,"year":"18","month":"11","normalized_date":0.453125,"type":1,"ts":0.44,"freg":10,"weight":0.0,"endereco":"Rua Rua Artilharia 1 14 1 DTO","entradas_repetidas":1,"host_listings_number":1},"geometry":{"type":"Point","coordinates":[-9.15427,38.723316]}},{"type":"Feature","properties":{"id":35,"year":"18","month":"10","normalized_date":0.4453125,"type":1,"ts":0.44,"freg":1,"weight":0.0,"endereco":"Cal\u00e7ada Cal\u00e7ada Conde Penafiel 9, 9A, 9B 1 ","entradas_repetidas":1,"host_listings_number":1},"geometry":{"type":"Point","coordinates":[-9.134531,38.711689]}},{"type":"Feature","properties":{"id":36,"year":"18","month":"10","normalized_date":0.4453125,"type":3,"ts":0.43,"freg":19,"weight":0.0,"endereco":"Rua Rua Professor Pinto Peixoto 4 5\u00ba B","entradas_repetidas":1,"host_listings_number":1},"geometry":{"type":"Point","coordinates":[-9.167765,38.75773]}},{"type":"Feature","properties":{"id":37,"year":"18","month":"10","normalized_date":0.4453125,"type":1,"ts":0.43,"freg":4,"weight":0.0,"endereco":"Pra\u00e7a Pra\u00e7a Lu\u00eds de Cam\u00f5es 18 C\\v B","entradas_repetidas":1,"host_listings_number":1},"geometry":{"type":"Point","coordinates":[-9.143896,38.710402]}},{"type":"Feature","properties":{"id":38,"year":"18","month":"09","normalized_date":0.4375,"type":1,"ts":0.43,"freg":5,"weight":0.0,"endereco":"Estrada Estrada Loureiro, 28 17  ","entradas_repetidas":1,"host_listings_number":1},"geometry":{"type":"Point","coordinates":[-9.171591,38.710729]}},{"type":"Feature","properties":{"id":39,"year":"18","month":"12","normalized_date":0.4609375,"type":2,"ts":0.45,"freg":7,"weight":0.0,"endereco":"Rua Rua Cruzeiro 120 RC Dt\u00ba","entradas_repetidas":1,"host_listings_number":1},"geometry":{"type":"Point","coordinates":[-9.192556,38.707931]}},{"type":"Feature","properties":{"id":40,"year":"18","month":"09","normalized_date":0.4375,"type":1,"ts":0.43,"freg":4,"weight":0.0,"endereco":"Rua Rua Adelas 4 RC ","entradas_repetidas":1,"host_listings_number":1},"geometry":{"type":"Point","coordinates":[-9.150791,38.714243]}},{"type":"Feature","properties":{"id":41,"year":"18","month":"09","normalized_date":0.4375,"type":1,"ts":0.43,"freg":18,"weight":0.0,"endereco":"Rua Fradesso Silveira Bloco C 4\u00ba A ","entradas_repetidas":1,"host_listings_number":1},"geometry":{"type":"Point","coordinates":[-9.176134,38.705206]}},{"type":"Feature","properties":{"id":42,"year":"18","month":"10","normalized_date":0.4453125,"type":1,"ts":0.43,"freg":3,"weight":0.0,"endereco":"Cal\u00e7ada Cal\u00e7ada Santana 45 3\u00ba ","entradas_repetidas":1,"host_listings_number":1},"geometry":{"type":"Point","coordinates":[-9.1385,38.715811]}},{"type":"Feature","properties":{"id":43,"year":"18","month":"10","normalized_date":0.4453125,"type":1,"ts":0.43,"freg":5,"weight":0.0,"endereco":"Rua Rua Esperan\u00e7a 37 1\u00ba ","entradas_repetidas":1,"host_listings_number":1},"geometry":{"type":"Point","coordinates":[-9.153834,38.708555]}},{"type":"Feature","properties":{"id":44,"year":"18","month":"09","normalized_date":0.4375,"type":1,"ts":0.43,"freg":5,"weight":0.0,"endereco":"Rua Rua Esperan\u00e7a 16 2\u00ba ","entradas_repetidas":1,"host_listings_number":1},"geometry":{"type":"Point","coordinates":[-9.153737,38.708735]}},{"type":"Feature","properties":{"id":45,"year":"18","month":"10","normalized_date":0.4453125,"type":1,"ts":0.43,"freg":6,"weight":0.0,"endereco":"Zona  Telheiros de S\u00e3o Vicente 23  ","entradas_repetidas":1,"host_listings_number":1},"geometry":{"type":"Point","coordinates":[-9.127928,38.715121]}},{"type":"Feature","properties":{"id":46,"year":"18","month":"10","normalized_date":0.4453125,"type":1,"ts":0.43,"freg":1,"weight":0.0,"endereco":"Rua Rua Gal\u00e9 13 2 ","entradas_repetidas":1,"host_listings_number":1},"geometry":{"type":"Point","coordinates":[-9.129844,38.710815]}},{"type":"Feature","properties":{"id":47,"year":"18","month":"10","normalized_date":0.4453125,"type":1,"ts":0.44,"freg":2,"weight":0.0,"endereco":"Rua Rua Arco do Carvalh\u00e3o 139 A 1.\u00ba Esq.\u00ba","entradas_repetidas":1,"host_listings_number":1},"geometry":{"type":"Point","coordinates":[-9.167351,38.72194]}},{"type":"Feature","properties":{"id":48,"year":"14","month":"09","normalized_date":0.0625,"type":1,"ts":0.06,"freg":5,"weight":0.0,"endereco":"Rua Rua Trinas 68 3 ","entradas_repetidas":1,"host_listings_number":1},"geometry":{"type":"Point","coordinates":[-9.158115,38.709671]}},{"type":"Feature","properties":{"id":49,"year":"18","month":"09","normalized_date":0.4375,"type":2,"ts":0.43,"freg":8,"weight":0.0,"endereco":"1\u00aa Rua RUA 16 12  ","entradas_repetidas":1,"host_listings_number":1},"geometry":{"type":"Point","coordinates":[-9.205454,38.701742]}},{"type":"Feature","properties":{"id":50,"year":"18","month":"09","normalized_date":0.4375,"type":1,"ts":0.43,"freg":19,"weight":0.0,"endereco":"Rua Rua Helena Vaz da Silva 1 2\u00ba D","entradas_repetidas":1,"host_listings_number":1},"geometry":{"type":"Point","coordinates":[-9.153781,38.77208]}},{"type":"Feature","properties":{"id":51,"year":"18","month":"10","normalized_date":0.4453125,"type":1,"ts":0.43,"freg":6,"weight":0.0,"endereco":"Beco Beco L\u00f3ios 15 3.\u00ba ","entradas_repetidas":1,"host_listings_number":1},"geometry":{"type":"Point","coordinates":[-9.130219,38.713948]}},{"type":"Feature","properties":{"id":52,"year":"18","month":"12","normalized_date":0.4609375,"type":1,"ts":0.45,"freg":4,"weight":0.0,"endereco":"Travessa Travessa Cego 2 R/C ","entradas_repetidas":1,"host_listings_number":1},"geometry":{"type":"Point","coordinates":[-9.152929,38.715469]}},{"type":"Feature","properties":{"id":53,"year":"18","month":"10","normalized_date":0.4453125,"type":1,"ts":0.43,"freg":6,"weight":0.0,"endereco":"Rua Rua Leite de Vasconcelos 34 R/C Esq","entradas_repetidas":1,"host_listings_number":1},"geometry":{"type":"Point","coordinates":[-9.124335,38.717799]}},{"type":"Feature","properties":{"id":54,"year":"18","month":"10","normalized_date":0.4453125,"type":1,"ts":0.43,"freg":16,"weight":0.0,"endereco":"Rua Rua Heliodoro Salgado 46 4\u00ba ","entradas_repetidas":1,"host_listings_number":1},"geometry":{"type":"Point","coordinates":[-9.130766,38.725074]}},{"type":"Feature","properties":{"id":55,"year":"18","month":"10","normalized_date":0.4453125,"type":1,"ts":0.43,"freg":12,"weight":0.0,"endereco":"Cal\u00e7ada Cal\u00e7ada 7 Moinhos 67 1\u00ba D","entradas_repetidas":1,"host_listings_number":1},"geometry":{"type":"Point","coordinates":[-9.168864,38.724587]}},{"type":"Feature","properties":{"id":56,"year":"18","month":"10","normalized_date":0.4453125,"type":1,"ts":0.43,"freg":16,"weight":0.0,"endereco":"Rua Rua Carvalho Ara\u00fajo 18 4\u00ba ","entradas_repetidas":1,"host_listings_number":1},"geometry":{"type":"Point","coordinates":[-9.131146,38.733471]}},{"type":"Feature","properties":{"id":57,"year":"18","month":"10","normalized_date":0.4453125,"type":1,"ts":0.43,"freg":1,"weight":0.0,"endereco":"Travessa Travessa S\u00e3o Miguel 15 1 ","entradas_repetidas":1,"host_listings_number":1},"geometry":{"type":"Point","coordinates":[-9.128946,38.71122]}},{"type":"Feature","properties":{"id":58,"year":"18","month":"10","normalized_date":0.4453125,"type":2,"ts":0.43,"freg":20,"weight":0.0,"endereco":"Rua Rua Mercado 19  ","entradas_repetidas":1,"host_listings_number":1},"geometry":{"type":"Point","coordinates":[-9.117127,38.770565]}},{"type":"Feature","properties":{"id":59,"year":"18","month":"10","normalized_date":0.4453125,"type":1,"ts":0.43,"freg":12,"weight":0.0,"endereco":"Rua Rua Campolide 51 4\u00ba Frente","entradas_repetidas":1,"host_listings_number":1},"geometry":{"type":"Point","coordinates":[-9.162434,38.727009]}},{"type":"Feature","properties":{"id":60,"year":"18","month":"10","normalized_date":0.4453125,"type":3,"ts":0.44,"freg":5,"weight":0.0,"endereco":"Rua Rua Conde 32 1\u00ba ","entradas_repetidas":1,"host_listings_number":1},"geometry":{"type":"Point","coordinates":[-9.161874,38.706147]}},{"type":"Feature","properties":{"id":61,"year":"18","month":"10","normalized_date":0.4453125,"type":3,"ts":0.43,"freg":13,"weight":0.0,"endereco":"Avenida Avenida Jo\u00e3o Cris\u00f3stomo 89 4 ","entradas_repetidas":1,"host_listings_number":1},"geometry":{"type":"Point","coordinates":[-9.151838,38.735551]}},{"type":"Feature","properties":{"id":62,"year":"18","month":"10","normalized_date":0.4453125,"type":1,"ts":0.43,"freg":9,"weight":0.0,"endereco":"Azinhaga Azinhaga das Galhardas 17, Bl D 15 A","entradas_repetidas":1,"host_listings_number":1},"geometry":{"type":"Point","coordinates":[-9.165908,38.753661]}},{"type":"Feature","properties":{"id":63,"year":"18","month":"10","normalized_date":0.4453125,"type":1,"ts":0.43,"freg":20,"weight":0.0,"endereco":"Rua Rua Cidade da Beira 66 2\u00ba esq","entradas_repetidas":1,"host_listings_number":1},"geometry":{"type":"Point","coordinates":[-9.121521,38.76841]}},{"type":"Feature","properties":{"id":64,"year":"18","month":"10","normalized_date":0.4453125,"type":1,"ts":0.44,"freg":1,"weight":0.0,"endereco":"Rua Rua Prata 54 1\u00ba Esq","entradas_repetidas":1,"host_listings_number":1},"geometry":{"type":"Point","coordinates":[-9.136293,38.709605]}},{"type":"Feature","properties":{"id":65,"year":"18","month":"12","normalized_date":0.4609375,"type":1,"ts":0.45,"freg":19,"weight":0.0,"endereco":"Rua Manuel Marques 8 11 B","entradas_repetidas":1,"host_listings_number":1},"geometry":{"type":"Point","coordinates":[-9.153737,38.765362]}},{"type":"Feature","properties":{"id":66,"year":"18","month":"10","normalized_date":0.4453125,"type":1,"ts":0.43,"freg":4,"weight":0.0,"endereco":"Rua Rua Atalaia 221 R/c ","entradas_repetidas":1,"host_listings_number":1},"geometry":{"type":"Point","coordinates":[-9.14558,38.714293]}},{"type":"Feature","properties":{"id":67,"year":"18","month":"10","normalized_date":0.4453125,"type":1,"ts":0.43,"freg":3,"weight":0.0,"endereco":"Rua Rua Ponta Delgada 58 2\u00ba B Esq - FRT","entradas_repetidas":1,"host_listings_number":1},"geometry":{"type":"Point","coordinates":[-9.137955,38.733032]}},{"type":"Feature","properties":{"id":68,"year":"18","month":"12","normalized_date":0.4609375,"type":1,"ts":0.45,"freg":18,"weight":0.0,"endereco":"Rua Rua 1\u00ba de Maio 146 4\u00ba Dt\u00ba","entradas_repetidas":1,"host_listings_number":1},"geometry":{"type":"Point","coordinates":[-9.18109,38.701999]}},{"type":"Feature","properties":{"id":69,"year":"18","month":"10","normalized_date":0.4453125,"type":1,"ts":0.43,"freg":3,"weight":0.0,"endereco":"Rua Rua Capit\u00e3o Renato Baptista 20 R/C Esq","entradas_repetidas":1,"host_listings_number":1},"geometry":{"type":"Point","coordinates":[-9.137024,38.720762]}},{"type":"Feature","properties":{"id":70,"year":"18","month":"10","normalized_date":0.4453125,"type":1,"ts":0.44,"freg":1,"weight":0.0,"endereco":"Beco Beco Benformoso 23 4\u00ba E","entradas_repetidas":1,"host_listings_number":1},"geometry":{"type":"Point","coordinates":[-9.135029,38.717005]}},{"type":"Feature","properties":{"id":71,"year":"19","month":"08","normalized_date":0.5234375,"type":1,"ts":0.51,"freg":12,"weight":0.0,"endereco":"Rua Rua Marqu\u00eas Fronteira 179 5\u00ba Esq","entradas_repetidas":1,"host_listings_number":1},"geometry":{"type":"Point","coordinates":[-9.163448,38.72718]}},{"type":"Feature","properties":{"id":72,"year":"19","month":"01","normalized_date":0.46875,"type":1,"ts":0.46,"freg":5,"weight":0.0,"endereco":"Rua Rua Pra\u00e7as 9 3 ","entradas_repetidas":1,"host_listings_number":1},"geometry":{"type":"Point","coordinates":[-9.15854,38.709658]}},{"type":"Feature","properties":{"id":73,"year":"18","month":"10","normalized_date":0.4453125,"type":1,"ts":0.44,"freg":8,"weight":0.0,"endereco":"Rua Rua Domingos Tendeiro 7 3\u00ba drt\u00ba","entradas_repetidas":1,"host_listings_number":1},"geometry":{"type":"Point","coordinates":[-9.20293,38.70209]}},{"type":"Feature","properties":{"id":74,"year":"18","month":"11","normalized_date":0.453125,"type":1,"ts":0.44,"freg":15,"weight":0.0,"endereco":"Rua Rua Egas Moniz 45 3 ","entradas_repetidas":1,"host_listings_number":1},"geometry":{"type":"Point","coordinates":[-9.130696,38.739463]}},{"type":"Feature","properties":{"id":75,"year":"18","month":"10","normalized_date":0.4453125,"type":1,"ts":0.44,"freg":5,"weight":0.0,"endereco":"Rua Presidente Arriaga 98 1 esq","entradas_repetidas":1,"host_listings_number":1},"geometry":{"type":"Point","coordinates":[-9.165527,38.70445]}},{"type":"Feature","properties":{"id":76,"year":"18","month":"10","normalized_date":0.4453125,"type":1,"ts":0.44,"freg":4,"weight":0.0,"endereco":"Rua Rua do Di\u00e1rio de Not\u00edcias 59/61  ","entradas_repetidas":1,"host_listings_number":1},"geometry":{"type":"Point","coordinates":[-9.144175,38.712067]}},{"type":"Feature","properties":{"id":77,"year":"19","month":"10","normalized_date":0.5390625,"type":1,"ts":0.53,"freg":8,"weight":0.0,"endereco":"Cal\u00e7ada Cal\u00e7ada Ajuda 36 a 40  ","entradas_repetidas":1,"host_listings_number":1},"geometry":{"type":"Point","coordinates":[-9.199392,38.698239]}},{"type":"Feature","properties":{"id":78,"year":"18","month":"12","normalized_date":0.4609375,"type":1,"ts":0.45,"freg":6,"weight":0.0,"endereco":"Rua Rua Rem\u00e9dios 191 2\u00ba ","entradas_repetidas":1,"host_listings_number":1},"geometry":{"type":"Point","coordinates":[-9.125197,38.713513]}},{"type":"Feature","properties":{"id":79,"year":"19","month":"01","normalized_date":0.46875,"type":1,"ts":0.46,"freg":18,"weight":0.0,"endereco":"Rua Rua Pedro Calmon 30 1 ","entradas_repetidas":1,"host_listings_number":1},"geometry":{"type":"Point","coordinates":[-9.185429,38.704879]}},{"type":"Feature","properties":{"id":80,"year":"18","month":"10","normalized_date":0.4453125,"type":3,"ts":0.44,"freg":5,"weight":0.0,"endereco":"Rua Rua Esperan\u00e7a 71 5\u00ba ","entradas_repetidas":1,"host_listings_number":1},"geometry":{"type":"Point","coordinates":[-9.154907,38.708041]}},{"type":"Feature","properties":{"id":81,"year":"18","month":"11","normalized_date":0.453125,"type":1,"ts":0.44,"freg":3,"weight":0.0,"endereco":"Rua Rua Arroios 50 3 esq","entradas_repetidas":1,"host_listings_number":1},"geometry":{"type":"Point","coordinates":[-9.136077,38.728616]}},{"type":"Feature","properties":{"id":82,"year":"18","month":"10","normalized_date":0.4453125,"type":1,"ts":0.44,"freg":1,"weight":0.0,"endereco":"Rua Dos Rem\u00e9dios 68 4 ","entradas_repetidas":1,"host_listings_number":1},"geometry":{"type":"Point","coordinates":[-9.12684,38.712136]}},{"type":"Feature","properties":{"id":83,"year":"18","month":"11","normalized_date":0.453125,"type":1,"ts":0.44,"freg":1,"weight":0.0,"endereco":"Largo Largo Salvador 3  ","entradas_repetidas":1,"host_listings_number":1},"geometry":{"type":"Point","coordinates":[-9.129309,38.712615]}},{"type":"Feature","properties":{"id":84,"year":"18","month":"10","normalized_date":0.4453125,"type":1,"ts":0.44,"freg":10,"weight":0.0,"endereco":"Rua Rua Santa Marta 84 1 ESQ","entradas_repetidas":1,"host_listings_number":1},"geometry":{"type":"Point","coordinates":[-9.147419,38.726975]}},{"type":"Feature","properties":{"id":85,"year":"18","month":"10","normalized_date":0.4453125,"type":1,"ts":0.44,"freg":4,"weight":0.0,"endereco":"Rua do sol a santa catarina 5B  ","entradas_repetidas":1,"host_listings_number":1},"geometry":{"type":"Point","coordinates":[-9.148019,38.710326]}},{"type":"Feature","properties":{"id":86,"year":"18","month":"10","normalized_date":0.4453125,"type":1,"ts":0.44,"freg":4,"weight":0.0,"endereco":"Rua do sol a santa catarina 5A  ","entradas_repetidas":1,"host_listings_number":1},"geometry":{"type":"Point","coordinates":[-9.147949,38.710318]}},{"type":"Feature","properties":{"id":87,"year":"18","month":"10","normalized_date":0.4453125,"type":3,"ts":0.44,"freg":1,"weight":0.0,"endereco":"Rua Rua Madalena 128 1\u00ba ","entradas_repetidas":1,"host_listings_number":1},"geometry":{"type":"Point","coordinates":[-9.135545,38.711308]}},{"type":"Feature","properties":{"id":88,"year":"18","month":"10","normalized_date":0.4453125,"type":1,"ts":0.44,"freg":6,"weight":0.0,"endereco":"Travessa Travessa da Pereira 30 R/c ","entradas_repetidas":1,"host_listings_number":1},"geometry":{"type":"Point","coordinates":[-9.129013,38.717331]}},{"type":"Feature","properties":{"id":89,"year":"18","month":"10","normalized_date":0.4453125,"type":1,"ts":0.44,"freg":4,"weight":0.0,"endereco":"1\u00aa Rua Luz Soriano 5 5 Esquerdo","entradas_repetidas":1,"host_listings_number":1},"geometry":{"type":"Point","coordinates":[-9.146005,38.711019]}},{"type":"Feature","properties":{"id":90,"year":"18","month":"10","normalized_date":0.4453125,"type":1,"ts":0.44,"freg":4,"weight":0.0,"endereco":"Travessa Travessa Caldeira 14 1 ","entradas_repetidas":1,"host_listings_number":1},"geometry":{"type":"Point","coordinates":[-9.149712,38.709753]}},{"type":"Feature","properties":{"id":91,"year":"18","month":"10","normalized_date":0.4453125,"type":1,"ts":0.44,"freg":4,"weight":0.0,"endereco":"Rua Rua Atalaia 199  ","entradas_repetidas":1,"host_listings_number":1},"geometry":{"type":"Point","coordinates":[-9.145349,38.714232]}},{"type":"Feature","properties":{"id":92,"year":"18","month":"10","normalized_date":0.4453125,"type":1,"ts":0.44,"freg":3,"weight":0.0,"endereco":"Rua Rua Mo\u00e7ambique 9 3\u00ba ","entradas_repetidas":1,"host_listings_number":1},"geometry":{"type":"Point","coordinates":[-9.133099,38.725372]}},{"type":"Feature","properties":{"id":93,"year":"18","month":"11","normalized_date":0.453125,"type":1,"ts":0.44,"freg":3,"weight":0.0,"endereco":"Rua Rua Jos\u00e9 Falc\u00e3o 54 1\u00ba ","entradas_repetidas":1,"host_listings_number":1},"geometry":{"type":"Point","coordinates":[-9.134666,38.733002]}},{"type":"Feature","properties":{"id":94,"year":"18","month":"11","normalized_date":0.453125,"type":1,"ts":0.44,"freg":3,"weight":0.0,"endereco":"Rua Rua Castelinhos 12 1\u00ba ","entradas_repetidas":1,"host_listings_number":1},"geometry":{"type":"Point","coordinates":[-9.137334,38.722675]}},{"type":"Feature","properties":{"id":95,"year":"18","month":"10","normalized_date":0.4453125,"type":3,"ts":0.44,"freg":8,"weight":0.0,"endereco":"Rua Rua 7 2  ","entradas_repetidas":1,"host_listings_number":1},"geometry":{"type":"Point","coordinates":[-9.204513,38.700346]}},{"type":"Feature","properties":{"id":96,"year":"19","month":"03","normalized_date":0.484375,"type":3,"ts":0.47,"freg":1,"weight":0.0,"endereco":"Rua da Achada  8  ","entradas_repetidas":1,"host_listings_number":1},"geometry":{"type":"Point","coordinates":[-9.135126,38.713293]}},{"type":"Feature","properties":{"id":97,"year":"18","month":"10","normalized_date":0.4453125,"type":1,"ts":0.44,"freg":4,"weight":0.0,"endereco":"Rua Rua Nova do Loureiro 31A  ","entradas_repetidas":1,"host_listings_number":1},"geometry":{"type":"Point","coordinates":[-9.146864,38.713434]}},{"type":"Feature","properties":{"id":98,"year":"18","month":"10","normalized_date":0.4453125,"type":1,"ts":0.44,"freg":1,"weight":0.0,"endereco":"Rua Rua Miseric\u00f3rdia 30 5 Esq","entradas_repetidas":1,"host_listings_number":1},"geometry":{"type":"Point","coordinates":[-9.142794,38.711615]}},{"type":"Feature","properties":{"id":99,"year":"18","month":"10","normalized_date":0.4453125,"type":1,"ts":0.44,"freg":5,"weight":0.0,"endereco":"Cal\u00e7ada Cal\u00e7ada Castelo Pic\u00e3o 45  ","entradas_repetidas":1,"host_listings_number":1},"geometry":{"type":"Point","coordinates":[-9.156657,38.709026]}},{"type":"Feature","properties":{"id":100,"year":"17","month":"01","normalized_date":0.28125,"type":1,"ts":0.27,"freg":16,"weight":0.0,"endereco":"Rua rua martins sarmento   ","entradas_repetidas":1,"host_listings_number":1},"geometry":{"type":"Point","coordinates":[-9.128923,38.730005]}},{"type":"Feature","properties":{"id":101,"year":"18","month":"12","normalized_date":0.4609375,"type":1,"ts":0.45,"freg":7,"weight":0.0,"endereco":"Rua Rua Merc\u00eas 115 Rc Dt","entradas_repetidas":1,"host_listings_number":1},"geometry":{"type":"Point","coordinates":[-9.199868,38.70491]}},{"type":"Feature","properties":{"id":102,"year":"18","month":"10","normalized_date":0.4453125,"type":1,"ts":0.44,"freg":20,"weight":0.0,"endereco":"Rua Rua General Silva Freire 53 1\u00ba esq","entradas_repetidas":1,"host_listings_number":1},"geometry":{"type":"Point","coordinates":[-9.117238,38.776175]}},{"type":"Feature","properties":{"id":103,"year":"18","month":"11","normalized_date":0.453125,"type":1,"ts":0.44,"freg":4,"weight":0.0,"endereco":"Rua Rua O S\u00e9culo 16 R/C ","entradas_repetidas":1,"host_listings_number":1},"geometry":{"type":"Point","coordinates":[-9.147315,38.711783]}},{"type":"Feature","properties":{"id":104,"year":"18","month":"10","normalized_date":0.4453125,"type":3,"ts":0.44,"freg":19,"weight":0.0,"endereco":"Rua Rua Lu\u00eds Pastor de Macedo Lote 14 4 Esq","entradas_repetidas":1,"host_listings_number":1},"geometry":{"type":"Point","coordinates":[-9.156647,38.767054]}},{"type":"Feature","properties":{"id":105,"year":"18","month":"10","normalized_date":0.4453125,"type":1,"ts":0.44,"freg":10,"weight":0.0,"endereco":"Rua Rua Prior Coutinho   ","entradas_repetidas":1,"host_listings_number":1},"geometry":{"type":"Point","coordinates":[-9.144807,38.7229]}},{"type":"Feature","properties":{"id":106,"year":"18","month":"10","normalized_date":0.4453125,"type":1,"ts":0.44,"freg":5,"weight":0.0,"endereco":"Rua Rua Domingos Sequeira 40 2 ","entradas_repetidas":1,"host_listings_number":1},"geometry":{"type":"Point","coordinates":[-9.162255,38.714667]}},{"type":"Feature","properties":{"id":107,"year":"18","month":"11","normalized_date":0.453125,"type":1,"ts":0.44,"freg":4,"weight":0.0,"endereco":"Rua Rua Rosa 283 3 Dt","entradas_repetidas":1,"host_listings_number":1},"geometry":{"type":"Point","coordinates":[-9.146056,38.714928]}},{"type":"Feature","properties":{"id":108,"year":"18","month":"10","normalized_date":0.4453125,"type":2,"ts":0.44,"freg":12,"weight":0.0,"endereco":"Rua Rua Garcia 5  ","entradas_repetidas":1,"host_listings_number":1},"geometry":{"type":"Point","coordinates":[-9.166135,38.723715]}},{"type":"Feature","properties":{"id":109,"year":"19","month":"01","normalized_date":0.46875,"type":1,"ts":0.46,"freg":2,"weight":0.0,"endereco":"Rua Rua S\u00e3o Bernardo 23 R/C DTO","entradas_repetidas":1,"host_listings_number":1},"geometry":{"type":"Point","coordinates":[-9.157314,38.715747]}},{"type":"Feature","properties":{"id":110,"year":"18","month":"10","normalized_date":0.4453125,"type":1,"ts":0.44,"freg":1,"weight":0.0,"endereco":"Rua Rua Marqu\u00eas Ponte de Lima 21 2 Direito","entradas_repetidas":1,"host_listings_number":1},"geometry":{"type":"Point","coordinates":[-9.134246,38.715418]}},{"type":"Feature","properties":{"id":111,"year":"18","month":"12","normalized_date":0.4609375,"type":1,"ts":0.45,"freg":1,"weight":0.0,"endereco":"Rua Rua Terreirinho 20 2\u00ba ","entradas_repetidas":1,"host_listings_number":1},"geometry":{"type":"Point","coordinates":[-9.133814,38.716448]}},{"type":"Feature","properties":{"id":112,"year":"18","month":"10","normalized_date":0.4453125,"type":1,"ts":0.44,"freg":13,"weight":0.0,"endereco":"Rua Rua Francisco Lyon de Castro 14 6 A","entradas_repetidas":1,"host_listings_number":1},"geometry":{"type":"Point","coordinates":[-9.153492,38.74693]}},{"type":"Feature","properties":{"id":113,"year":"18","month":"10","normalized_date":0.4453125,"type":1,"ts":0.44,"freg":6,"weight":0.0,"endereco":"Travessa Travessa Olival \u00e0 Gra\u00e7a 28 3 Esq.\u00ba","entradas_repetidas":1,"host_listings_number":1},"geometry":{"type":"Point","coordinates":[-9.124319,38.719132]}},{"type":"Feature","properties":{"id":114,"year":"18","month":"10","normalized_date":0.4453125,"type":1,"ts":0.44,"freg":4,"weight":0.0,"endereco":"Rua Rua Vale 8 4\u00ba ","entradas_repetidas":1,"host_listings_number":1},"geometry":{"type":"Point","coordinates":[-9.150299,38.711424]}},{"type":"Feature","properties":{"id":115,"year":"18","month":"10","normalized_date":0.4453125,"type":1,"ts":0.44,"freg":12,"weight":0.0,"endereco":"Rua Rua Arco do Carvalh\u00e3o 47 1\u00ba D ","entradas_repetidas":1,"host_listings_number":1},"geometry":{"type":"Point","coordinates":[-9.164264,38.72474]}},{"type":"Feature","properties":{"id":116,"year":"18","month":"10","normalized_date":0.4453125,"type":1,"ts":0.44,"freg":2,"weight":0.0,"endereco":"Travessa Travessa Baixo dos Quart\u00e9is 65 1\u00ba Dto","entradas_repetidas":1,"host_listings_number":1},"geometry":{"type":"Point","coordinates":[-9.162275,38.720331]}},{"type":"Feature","properties":{"id":117,"year":"18","month":"12","normalized_date":0.4609375,"type":1,"ts":0.45,"freg":8,"weight":0.0,"endereco":"Rua Rua Jer\u00f3nimos 42 R/C Esq","entradas_repetidas":1,"host_listings_number":1},"geometry":{"type":"Point","coordinates":[-9.206077,38.701124]}},{"type":"Feature","properties":{"id":118,"year":"18","month":"10","normalized_date":0.4453125,"type":1,"ts":0.44,"freg":10,"weight":0.0,"endereco":"Rua Rua Santa Marta 16E 1\u00ba ","entradas_repetidas":1,"host_listings_number":1},"geometry":{"type":"Point","coordinates":[-9.144847,38.721504]}},{"type":"Feature","properties":{"id":119,"year":"18","month":"10","normalized_date":0.4453125,"type":1,"ts":0.44,"freg":4,"weight":0.0,"endereco":"1\u00aa Rua Pedro Dias 34 r/ch ","entradas_repetidas":1,"host_listings_number":1},"geometry":{"type":"Point","coordinates":[-9.151194,38.711927]}},{"type":"Feature","properties":{"id":120,"year":"19","month":"08","normalized_date":0.5234375,"type":1,"ts":0.51,"freg":18,"weight":0.0,"endereco":"Rua dos Lus\u00edadas 127 R/ch\u00e3o ","entradas_repetidas":1,"host_listings_number":1},"geometry":{"type":"Point","coordinates":[-9.183554,38.703275]}},{"type":"Feature","properties":{"id":121,"year":"18","month":"10","normalized_date":0.4453125,"type":1,"ts":0.44,"freg":1,"weight":0.0,"endereco":"Beco Beco Cruzes 4  R/C ","entradas_repetidas":1,"host_listings_number":1},"geometry":{"type":"Point","coordinates":[-9.128768,38.711948]}},{"type":"Feature","properties":{"id":122,"year":"18","month":"10","normalized_date":0.4453125,"type":1,"ts":0.44,"freg":2,"weight":0.0,"endereco":"Rua Rua Infantaria 16 104 R/C ","entradas_repetidas":1,"host_listings_number":1},"geometry":{"type":"Point","coordinates":[-9.168696,38.718387]}},{"type":"Feature","properties":{"id":123,"year":"18","month":"10","normalized_date":0.4453125,"type":1,"ts":0.44,"freg":3,"weight":0.0,"endereco":"Rua Rua Actor Taborda 41 4 ","entradas_repetidas":1,"host_listings_number":1},"geometry":{"type":"Point","coordinates":[-9.143849,38.731756]}},{"type":"Feature","properties":{"id":124,"year":"18","month":"10","normalized_date":0.4453125,"type":1,"ts":0.44,"freg":5,"weight":0.0,"endereco":"Travessa Travessa Pasteleiro 15 3\u00ba ","entradas_repetidas":1,"host_listings_number":1},"geometry":{"type":"Point","coordinates":[-9.153996,38.708795]}},{"type":"Feature","properties":{"id":125,"year":"18","month":"10","normalized_date":0.4453125,"type":1,"ts":0.44,"freg":13,"weight":0.0,"endereco":"Rua Rua Fialho de Almeida 6 1\u00ba ","entradas_repetidas":1,"host_listings_number":1},"geometry":{"type":"Point","coordinates":[-9.155405,38.734106]}},{"type":"Feature","properties":{"id":126,"year":"18","month":"10","normalized_date":0.4453125,"type":1,"ts":0.44,"freg":1,"weight":0.0,"endereco":"Rua Rua dos Rem\u00e9dios 4 1 ","entradas_repetidas":1,"host_listings_number":1},"geometry":{"type":"Point","coordinates":[-9.127622,38.711433]}},{"type":"Feature","properties":{"id":127,"year":"12","month":"07","normalized_date":0,"type":4,"ts":0,"freg":4,"weight":0.0,"endereco":"Rua Rua S\u00e3o Pedro de Alc\u00e2ntara 81  ","entradas_repetidas":1,"host_listings_number":1},"geometry":{"type":"Point","coordinates":[-9.144622,38.714878]}},{"type":"Feature","properties":{"id":128,"year":"19","month":"01","normalized_date":0.46875,"type":1,"ts":0.46,"freg":16,"weight":0.0,"endereco":"Rua Rua Angelina Vidal   ","entradas_repetidas":1,"host_listings_number":1},"geometry":{"type":"Point","coordinates":[-9.131383,38.723]}},{"type":"Feature","properties":{"id":129,"year":"18","month":"10","normalized_date":0.4453125,"type":1,"ts":0.44,"freg":1,"weight":0.0,"endereco":"Rua Rua Norberto de Ara\u00fajo 11-A 5.\u00ba ","entradas_repetidas":1,"host_listings_number":1},"geometry":{"type":"Point","coordinates":[-9.130201,38.711309]}},{"type":"Feature","properties":{"id":130,"year":"15","month":"10","normalized_date":0.1640625,"type":1,"ts":0.16,"freg":1,"weight":0.0,"endereco":"Rua  Costa do Castelo 44 RC Esq","entradas_repetidas":1,"host_listings_number":1},"geometry":{"type":"Point","coordinates":[-9.134626,38.712847]}},{"type":"Feature","properties":{"id":131,"year":"19","month":"01","normalized_date":0.46875,"type":5,"ts":0.46,"freg":15,"weight":0.0,"endereco":"Avenida Avenida Almirante Reis 213 1\u00ba ","entradas_repetidas":1,"host_listings_number":1},"geometry":{"type":"Point","coordinates":[-9.133974,38.737768]}},{"type":"Feature","properties":{"id":132,"year":"18","month":"10","normalized_date":0.4453125,"type":1,"ts":0.44,"freg":17,"weight":0.0,"endereco":"Alameda Alameda Oceanos 87 3\u00ba frente","entradas_repetidas":1,"host_listings_number":1},"geometry":{"type":"Point","coordinates":[-9.095286,38.777972]}},{"type":"Feature","properties":{"id":133,"year":"18","month":"10","normalized_date":0.4453125,"type":1,"ts":0.44,"freg":1,"weight":0.0,"endereco":"Beco Beco Cardosa 4  ","entradas_repetidas":1,"host_listings_number":1},"geometry":{"type":"Point","coordinates":[-9.12911,38.711417]}},{"type":"Feature","properties":{"id":134,"year":"18","month":"11","normalized_date":0.453125,"type":1,"ts":0.44,"freg":1,"weight":0.0,"endereco":"Rua Rua Jo\u00e3o do Outeiro 45 1\u00ba Fte","entradas_repetidas":1,"host_listings_number":1},"geometry":{"type":"Point","coordinates":[-9.134262,38.715643]}},{"type":"Feature","properties":{"id":135,"year":"18","month":"10","normalized_date":0.4453125,"type":1,"ts":0.44,"freg":4,"weight":0.0,"endereco":"Rua Rua Flores  5\u00ba/6\u00ba ","entradas_repetidas":1,"host_listings_number":1},"geometry":{"type":"Point","coordinates":[-9.143783,38.708354]}},{"type":"Feature","properties":{"id":136,"year":"22","month":"03","normalized_date":0.765625,"type":4,"ts":0.75,"freg":3,"weight":0.0,"endereco":"Rua Rua Capit\u00e3o Renato Baptista 88  ","entradas_repetidas":1,"host_listings_number":1},"geometry":{"type":"Point","coordinates":[-9.136631,38.722225]}},{"type":"Feature","properties":{"id":137,"year":"18","month":"11","normalized_date":0.453125,"type":1,"ts":0.44,"freg":19,"weight":0.0,"endereco":"1\u00aa Rua Rua Professor M\u00e1rio Chic\u00f3 7 1 L","entradas_repetidas":1,"host_listings_number":1},"geometry":{"type":"Point","coordinates":[-9.168696,38.761639]}},{"type":"Feature","properties":{"id":138,"year":"18","month":"10","normalized_date":0.4453125,"type":2,"ts":0.44,"freg":5,"weight":0.0,"endereco":"1\u00aa Travessa do P\u00e9 de Ferro 36  ","entradas_repetidas":1,"host_listings_number":1},"geometry":{"type":"Point","coordinates":[-9.156941,38.708825]}},{"type":"Feature","properties":{"id":139,"year":"18","month":"10","normalized_date":0.4453125,"type":1,"ts":0.44,"freg":3,"weight":0.0,"endereco":"Avenida Avenida Duque \u00c1vila 47 2 Frente","entradas_repetidas":1,"host_listings_number":1},"geometry":{"type":"Point","coordinates":[-9.142426,38.735096]}},{"type":"Feature","properties":{"id":140,"year":"18","month":"10","normalized_date":0.4453125,"type":1,"ts":0.44,"freg":9,"weight":0.0,"endereco":"Pra\u00e7a Francisco Morais   ","entradas_repetidas":1,"host_listings_number":1},"geometry":{"type":"Point","coordinates":[-9.144279,38.745967]}},{"type":"Feature","properties":{"id":141,"year":"18","month":"10","normalized_date":0.4453125,"type":1,"ts":0.44,"freg":6,"weight":0.0,"endereco":"Rua Rua Senhora Monte 32 4\u00ba ESq","entradas_repetidas":1,"host_listings_number":1},"geometry":{"type":"Point","coordinates":[-9.131569,38.719566]}},{"type":"Feature","properties":{"id":142,"year":"19","month":"05","normalized_date":0.5,"type":4,"ts":0.49,"freg":3,"weight":0.0,"endereco":"Rua Rua Ilha do Pr\u00edncipe 21-21C  ","entradas_repetidas":1,"host_listings_number":1},"geometry":{"type":"Point","coordinates":[-9.132149,38.726506]}},{"type":"Feature","properties":{"id":143,"year":"18","month":"10","normalized_date":0.4453125,"type":1,"ts":0.43,"freg":6,"weight":0.0,"endereco":"2\u00aa Travessa Travessa Terras do Monte 17 1 ","entradas_repetidas":1,"host_listings_number":1},"geometry":{"type":"Point","coordinates":[-9.131937,38.719817]}},{"type":"Feature","properties":{"id":144,"year":"18","month":"09","normalized_date":0.4375,"type":1,"ts":0.43,"freg":1,"weight":0.0,"endereco":"Beco Beco Lapa 18 R/C ","entradas_repetidas":1,"host_listings_number":1},"geometry":{"type":"Point","coordinates":[-9.125828,38.712643]}},{"type":"Feature","properties":{"id":145,"year":"18","month":"10","normalized_date":0.4453125,"type":1,"ts":0.44,"freg":5,"weight":0.0,"endereco":"Rua Rua Madres 48 Rc. ","entradas_repetidas":1,"host_listings_number":1},"geometry":{"type":"Point","coordinates":[-9.15476,38.7088]}},{"type":"Feature","properties":{"id":146,"year":"18","month":"08","normalized_date":0.4296875,"type":1,"ts":0.42,"freg":6,"weight":0.0,"endereco":"Cal\u00e7ada Cal\u00e7ada Casc\u00e3o 36 2\u00ba ","entradas_repetidas":1,"host_listings_number":1},"geometry":{"type":"Point","coordinates":[-9.125262,38.714134]}},{"type":"Feature","properties":{"id":147,"year":"18","month":"08","normalized_date":0.4296875,"type":1,"ts":0.42,"freg":13,"weight":0.0,"endereco":"Avenida da Rep\u00fablica 22  ","entradas_repetidas":1,"host_listings_number":1},"geometry":{"type":"Point","coordinates":[-9.145146,38.736519]}},{"type":"Feature","properties":{"id":148,"year":"18","month":"08","normalized_date":0.4296875,"type":2,"ts":0.42,"freg":7,"weight":0.0,"endereco":"Estrada do Penedo S/N  ","entradas_repetidas":1,"host_listings_number":1},"geometry":{"type":"Point","coordinates":[-9.201465,38.715937]}},{"type":"Feature","properties":{"id":149,"year":"18","month":"08","normalized_date":0.4296875,"type":3,"ts":0.42,"freg":4,"weight":0.0,"endereco":"Rua Rua Cruz dos Poiais 21  ","entradas_repetidas":1,"host_listings_number":1},"geometry":{"type":"Point","coordinates":[-9.151732,38.711132]}},{"type":"Feature","properties":{"id":150,"year":"18","month":"08","normalized_date":0.4296875,"type":1,"ts":0.42,"freg":6,"weight":0.0,"endereco":"Rua Rua Damasceno Monteiro 60 2\u00ba Dt","entradas_repetidas":1,"host_listings_number":1},"geometry":{"type":"Point","coordinates":[-9.133328,38.719176]}},{"type":"Feature","properties":{"id":151,"year":"18","month":"08","normalized_date":0.4296875,"type":1,"ts":0.42,"freg":4,"weight":0.0,"endereco":"Rua Rua Cruz dos Poiais 81 2 ","entradas_repetidas":1,"host_listings_number":1},"geometry":{"type":"Point","coordinates":[-9.151413,38.712134]}},{"type":"Feature","properties":{"id":152,"year":"18","month":"10","normalized_date":0.4453125,"type":3,"ts":0.43,"freg":13,"weight":0.0,"endereco":"Rua Rua Marqu\u00eas Subserra 10  ","entradas_repetidas":1,"host_listings_number":1},"geometry":{"type":"Point","coordinates":[-9.157089,38.725614]}},{"type":"Feature","properties":{"id":153,"year":"18","month":"10","normalized_date":0.4453125,"type":1,"ts":0.43,"freg":10,"weight":0.0,"endereco":"Rua Rua Caridade 12 Rc. Dto.","entradas_repetidas":1,"host_listings_number":1},"geometry":{"type":"Point","coordinates":[-9.143598,38.721323]}},{"type":"Feature","properties":{"id":154,"year":"18","month":"09","normalized_date":0.4375,"type":1,"ts":0.42,"freg":4,"weight":0.0,"endereco":"Travessa Travessa Palmeira 13 1 ","entradas_repetidas":1,"host_listings_number":1},"geometry":{"type":"Point","coordinates":[-9.150502,38.714144]}},{"type":"Feature","properties":{"id":155,"year":"18","month":"08","normalized_date":0.4296875,"type":1,"ts":0.42,"freg":11,"weight":0.0,"endereco":"Rua Rua Luciana Stegagno Picchio 1 6\u00ba B","entradas_repetidas":1,"host_listings_number":1},"geometry":{"type":"Point","coordinates":[-9.182084,38.75528]}},{"type":"Feature","properties":{"id":156,"year":"18","month":"09","normalized_date":0.4375,"type":1,"ts":0.42,"freg":6,"weight":0.0,"endereco":"Largo Largo Gra\u00e7a 127 4.\u00ba ESQ","entradas_repetidas":1,"host_listings_number":1},"geometry":{"type":"Point","coordinates":[-9.130033,38.718273]}},{"type":"Feature","properties":{"id":157,"year":"18","month":"08","normalized_date":0.4296875,"type":1,"ts":0.42,"freg":2,"weight":0.0,"endereco":"Rua Rua Arco do Carvalh\u00e3o 233 2 Esq","entradas_repetidas":1,"host_listings_number":1},"geometry":{"type":"Point","coordinates":[-9.171636,38.720099]}},{"type":"Feature","properties":{"id":158,"year":"18","month":"09","normalized_date":0.4375,"type":1,"ts":0.42,"freg":2,"weight":0.0,"endereco":"Rua Rua Silva Carvalho 86 A 1 ","entradas_repetidas":1,"host_listings_number":1},"geometry":{"type":"Point","coordinates":[-9.16178,38.719347]}},{"type":"Feature","properties":{"id":159,"year":"18","month":"08","normalized_date":0.4296875,"type":1,"ts":0.42,"freg":3,"weight":0.0,"endereco":"Rua Rua Gon\u00e7alves Crespo 18 2 Esq","entradas_repetidas":1,"host_listings_number":1},"geometry":{"type":"Point","coordinates":[-9.142961,38.727427]}},{"type":"Feature","properties":{"id":160,"year":"18","month":"09","normalized_date":0.4375,"type":1,"ts":0.42,"freg":3,"weight":0.0,"endereco":"1\u00aa Rua Gon\u00e7alves Crespo  50 4 ","entradas_repetidas":1,"host_listings_number":1},"geometry":{"type":"Point","coordinates":[-9.143801,38.728355]}},{"type":"Feature","properties":{"id":161,"year":"18","month":"08","normalized_date":0.4296875,"type":2,"ts":0.42,"freg":9,"weight":0.0,"endereco":"Rua Rua General Pimenta de Castro 3A  ","entradas_repetidas":1,"host_listings_number":1},"geometry":{"type":"Point","coordinates":[-9.134609,38.746221]}},{"type":"Feature","properties":{"id":162,"year":"18","month":"08","normalized_date":0.4296875,"type":1,"ts":0.42,"freg":1,"weight":0.0,"endereco":"Largo Da S\u00e9 8 4 esquerdo","entradas_repetidas":1,"host_listings_number":1},"geometry":{"type":"Point","coordinates":[-9.134298,38.709978]}},{"type":"Feature","properties":{"id":163,"year":"18","month":"08","normalized_date":0.4296875,"type":1,"ts":0.42,"freg":12,"weight":0.0,"endereco":"Cal\u00e7ada Cal\u00e7ada Mestres 92 3\u00ba.  Dt\u00ba. ","entradas_repetidas":1,"host_listings_number":1},"geometry":{"type":"Point","coordinates":[-9.16648,38.728531]}},{"type":"Feature","properties":{"id":164,"year":"18","month":"08","normalized_date":0.4296875,"type":1,"ts":0.42,"freg":6,"weight":0.0,"endereco":"Cal\u00e7ada Cal\u00e7ada Casc\u00e3o 16 2\u00ba ","entradas_repetidas":1,"host_listings_number":1},"geometry":{"type":"Point","coordinates":[-9.125076,38.713925]}},{"type":"Feature","properties":{"id":165,"year":"18","month":"09","normalized_date":0.4375,"type":1,"ts":0.43,"freg":17,"weight":0.0,"endereco":"Passeio Passeio Vila Expo 13 1 B","entradas_repetidas":1,"host_listings_number":1},"geometry":{"type":"Point","coordinates":[-9.09629,38.782253]}},{"type":"Feature","properties":{"id":166,"year":"18","month":"08","normalized_date":0.4296875,"type":3,"ts":0.42,"freg":13,"weight":0.0,"endereco":"Avenida Avenida Ressano Garcia 35 2\u00ba ","entradas_repetidas":1,"host_listings_number":1},"geometry":{"type":"Point","coordinates":[-9.15683,38.734843]}},{"type":"Feature","properties":{"id":167,"year":"18","month":"10","normalized_date":0.4453125,"type":1,"ts":0.43,"freg":13,"weight":0.0,"endereco":"Avenida Avenida Ressano Garcia 45 3\u00ba Dto","entradas_repetidas":1,"host_listings_number":1},"geometry":{"type":"Point","coordinates":[-9.157662,38.735014]}},{"type":"Feature","properties":{"id":168,"year":"18","month":"08","normalized_date":0.4296875,"type":1,"ts":0.42,"freg":3,"weight":0.0,"endereco":"Rua Rua Bombarda 45 R/c ","entradas_repetidas":1,"host_listings_number":1},"geometry":{"type":"Point","coordinates":[-9.134054,38.720509]}},{"type":"Feature","properties":{"id":169,"year":"18","month":"10","normalized_date":0.4453125,"type":1,"ts":0.43,"freg":1,"weight":0.0,"endereco":"Rua Rua Castelo Pic\u00e3o 2 Cave Dto","entradas_repetidas":1,"host_listings_number":1},"geometry":{"type":"Point","coordinates":[-9.129586,38.711518]}},{"type":"Feature","properties":{"id":170,"year":"18","month":"08","normalized_date":0.4296875,"type":1,"ts":0.42,"freg":6,"weight":0.0,"endereco":"Rua Rua Bela Vista \u00e0 Gra\u00e7a 34 1\u00ba Esq","entradas_repetidas":1,"host_listings_number":1},"geometry":{"type":"Point","coordinates":[-9.12423,38.718733]}},{"type":"Feature","properties":{"id":171,"year":"18","month":"08","normalized_date":0.4296875,"type":3,"ts":0.42,"freg":12,"weight":0.0,"endereco":"Cal\u00e7ada Cal\u00e7ada Mestres 54 3 Esq","entradas_repetidas":1,"host_listings_number":1},"geometry":{"type":"Point","coordinates":[-9.166055,38.727733]}},{"type":"Feature","properties":{"id":172,"year":"18","month":"08","normalized_date":0.4296875,"type":1,"ts":0.42,"freg":4,"weight":0.0,"endereco":"Avenida Avenida 24 de Julho 3  ","entradas_repetidas":1,"host_listings_number":1},"geometry":{"type":"Point","coordinates":[-9.147507,38.70671]}},{"type":"Feature","properties":{"id":173,"year":"18","month":"08","normalized_date":0.4296875,"type":1,"ts":0.42,"freg":4,"weight":0.0,"endereco":"Rua Rua Cruz dos Poiais 83 2\u00ba ","entradas_repetidas":1,"host_listings_number":1},"geometry":{"type":"Point","coordinates":[-9.151402,38.712154]}},{"type":"Feature","properties":{"id":174,"year":"18","month":"08","normalized_date":0.4296875,"type":1,"ts":0.42,"freg":3,"weight":0.0,"endereco":"Rua Rua Funchal 9 2 Esq.","entradas_repetidas":1,"host_listings_number":1},"geometry":{"type":"Point","coordinates":[-9.140133,38.73413]}},{"type":"Feature","properties":{"id":175,"year":"18","month":"08","normalized_date":0.4296875,"type":3,"ts":0.42,"freg":3,"weight":0.0,"endereco":"Rua Rua Antero de Quental 26 Rc. E","entradas_repetidas":1,"host_listings_number":1},"geometry":{"type":"Point","coordinates":[-9.136232,38.722499]}},{"type":"Feature","properties":{"id":176,"year":"18","month":"08","normalized_date":0.4296875,"type":1,"ts":0.42,"freg":4,"weight":0.0,"endereco":"Travessa Travessa Cais do Tojo   ","entradas_repetidas":1,"host_listings_number":1},"geometry":{"type":"Point","coordinates":[-9.15211,38.708246]}},{"type":"Feature","properties":{"id":177,"year":"18","month":"08","normalized_date":0.4296875,"type":1,"ts":0.42,"freg":1,"weight":0.0,"endereco":"Beco Beco Pocinho 10  ","entradas_repetidas":1,"host_listings_number":1},"geometry":{"type":"Point","coordinates":[-9.128934,38.711175]}},{"type":"Feature","properties":{"id":178,"year":"18","month":"08","normalized_date":0.4296875,"type":2,"ts":0.42,"freg":14,"weight":0.0,"endereco":"Rua Rua Machado A Carnide 19  ","entradas_repetidas":1,"host_listings_number":1},"geometry":{"type":"Point","coordinates":[-9.188892,38.75966]}},{"type":"Feature","properties":{"id":179,"year":"19","month":"03","normalized_date":0.484375,"type":1,"ts":0.47,"freg":9,"weight":0.0,"endereco":"Azinhaga Azinhaga Ameixiais AS2 1 Dt\u00ba","entradas_repetidas":1,"host_listings_number":1},"geometry":{"type":"Point","coordinates":[-9.15091,38.755618]}},{"type":"Feature","properties":{"id":180,"year":"18","month":"08","normalized_date":0.4296875,"type":1,"ts":0.42,"freg":5,"weight":0.0,"endereco":"Rua Rua S\u00e3o Bernardo 14 B1 5\u00ba ","entradas_repetidas":1,"host_listings_number":1},"geometry":{"type":"Point","coordinates":[-9.158161,38.71313]}},{"type":"Feature","properties":{"id":181,"year":"18","month":"08","normalized_date":0.4296875,"type":1,"ts":0.42,"freg":8,"weight":0.0,"endereco":"Rua Rua Pedrou\u00e7os 73 1\u00ba DT\u00ba","entradas_repetidas":1,"host_listings_number":1},"geometry":{"type":"Point","coordinates":[-9.219147,38.695842]}},{"type":"Feature","properties":{"id":182,"year":"18","month":"08","normalized_date":0.4296875,"type":1,"ts":0.42,"freg":18,"weight":0.0,"endereco":"Rua Rua Alian\u00e7a Oper\u00e1ria 12 r/c Esq","entradas_repetidas":1,"host_listings_number":1},"geometry":{"type":"Point","coordinates":[-9.188853,38.704758]}},{"type":"Feature","properties":{"id":183,"year":"18","month":"08","normalized_date":0.4296875,"type":1,"ts":0.42,"freg":14,"weight":0.0,"endereco":"Azinhaga Azinhaga Torre do Fato 7 2 Direito","entradas_repetidas":1,"host_listings_number":1},"geometry":{"type":"Point","coordinates":[-9.178579,38.760887]}},{"type":"Feature","properties":{"id":184,"year":"18","month":"08","normalized_date":0.4296875,"type":1,"ts":0.42,"freg":5,"weight":0.0,"endereco":"Rua Rua Presidente Arriaga 130/132 1\u00ba B","entradas_repetidas":1,"host_listings_number":1},"geometry":{"type":"Point","coordinates":[-9.166178,38.704492]}},{"type":"Feature","properties":{"id":185,"year":"18","month":"08","normalized_date":0.4296875,"type":1,"ts":0.42,"freg":6,"weight":0.0,"endereco":"Rua Rua Gra\u00e7a 44 4\u00ba ","entradas_repetidas":1,"host_listings_number":1},"geometry":{"type":"Point","coordinates":[-9.130088,38.720394]}},{"type":"Feature","properties":{"id":186,"year":"18","month":"08","normalized_date":0.4296875,"type":1,"ts":0.42,"freg":10,"weight":0.0,"endereco":"Rua Rua Taipas 15 2 ","entradas_repetidas":1,"host_listings_number":1},"geometry":{"type":"Point","coordinates":[-9.144977,38.716352]}},{"type":"Feature","properties":{"id":187,"year":"18","month":"09","normalized_date":0.4375,"type":3,"ts":0.42,"freg":16,"weight":0.0,"endereco":"Rua Rua Paio Peres Correia 10  ","entradas_repetidas":1,"host_listings_number":1},"geometry":{"type":"Point","coordinates":[-9.117001,38.726253]}},{"type":"Feature","properties":{"id":188,"year":"18","month":"08","normalized_date":0.4296875,"type":1,"ts":0.42,"freg":19,"weight":0.0,"endereco":"Rua Rua Lu\u00eds Pastor de Macedo 29 1\u00ba esq","entradas_repetidas":1,"host_listings_number":1},"geometry":{"type":"Point","coordinates":[-9.155968,38.768259]}},{"type":"Feature","properties":{"id":189,"year":"18","month":"08","normalized_date":0.4296875,"type":1,"ts":0.42,"freg":1,"weight":0.0,"endereco":"Cal\u00e7ada Cal\u00e7ada S\u00e3o Louren\u00e7o 5  ","entradas_repetidas":1,"host_listings_number":1},"geometry":{"type":"Point","coordinates":[-9.135865,38.714234]}},{"type":"Feature","properties":{"id":190,"year":"18","month":"08","normalized_date":0.4296875,"type":3,"ts":0.42,"freg":1,"weight":0.0,"endereco":"Rua Rua Benformoso 27 1.\u00ba ","entradas_repetidas":1,"host_listings_number":1},"geometry":{"type":"Point","coordinates":[-9.135019,38.717113]}},{"type":"Feature","properties":{"id":191,"year":"18","month":"08","normalized_date":0.4296875,"type":1,"ts":0.42,"freg":5,"weight":0.0,"endereco":"Rua Rua Vicente Borga 87  ","entradas_repetidas":1,"host_listings_number":1},"geometry":{"type":"Point","coordinates":[-9.155776,38.708556]}},{"type":"Feature","properties":{"id":192,"year":"18","month":"09","normalized_date":0.4375,"type":1,"ts":0.43,"freg":7,"weight":0.0,"endereco":"Rua Rua Merc\u00eas 78 1 ","entradas_repetidas":1,"host_listings_number":1},"geometry":{"type":"Point","coordinates":[-9.199802,38.704298]}},{"type":"Feature","properties":{"id":193,"year":"18","month":"09","normalized_date":0.4375,"type":1,"ts":0.43,"freg":3,"weight":0.0,"endereco":"Campo Campo M\u00e1rtires da P\u00e1tria 23 R/C ","entradas_repetidas":1,"host_listings_number":1},"geometry":{"type":"Point","coordinates":[-9.140553,38.720678]}},{"type":"Feature","properties":{"id":194,"year":"18","month":"07","normalized_date":0.421875,"type":1,"ts":0.42,"freg":12,"weight":0.0,"endereco":"Cal\u00e7ada Cal\u00e7ada Quintinha 7 1 Esq","entradas_repetidas":1,"host_listings_number":1},"geometry":{"type":"Point","coordinates":[-9.16545,38.726496]}},{"type":"Feature","properties":{"id":195,"year":"18","month":"07","normalized_date":0.421875,"type":3,"ts":0.42,"freg":16,"weight":0.0,"endereco":"Rua Rua Padre Sena de Freitas 4 2\u00ba Esq.","entradas_repetidas":1,"host_listings_number":1},"geometry":{"type":"Point","coordinates":[-9.130052,38.72956]}},{"type":"Feature","properties":{"id":196,"year":"18","month":"08","normalized_date":0.4296875,"type":1,"ts":0.42,"freg":5,"weight":0.0,"endereco":"Travessa Travessa Nova de Santos 5 1\u00ba ","entradas_repetidas":1,"host_listings_number":1},"geometry":{"type":"Point","coordinates":[-9.158049,38.707482]}},{"type":"Feature","properties":{"id":197,"year":"18","month":"08","normalized_date":0.4296875,"type":3,"ts":0.42,"freg":3,"weight":0.0,"endereco":"Rua Rua Pascoal de Melo 11 SUBCAVE DTA","entradas_repetidas":1,"host_listings_number":1},"geometry":{"type":"Point","coordinates":[-9.135924,38.731196]}},{"type":"Feature","properties":{"id":198,"year":"18","month":"08","normalized_date":0.4296875,"type":1,"ts":0.42,"freg":4,"weight":0.0,"endereco":"Rua Rua S\u00e3o Bento 106 3\u00ba E","entradas_repetidas":1,"host_listings_number":1},"geometry":{"type":"Point","coordinates":[-9.15259,38.711769]}},{"type":"Feature","properties":{"id":199,"year":"18","month":"08","normalized_date":0.4296875,"type":1,"ts":0.42,"freg":4,"weight":0.0,"endereco":"Rua Rua Vinha 25 1 e 5 ","entradas_repetidas":1,"host_listings_number":1},"geometry":{"type":"Point","coordinates":[-9.146499,38.714249]}},{"type":"Feature","properties":{"id":200,"year":"18","month":"08","normalized_date":0.4296875,"type":1,"ts":0.42,"freg":3,"weight":0.0,"endereco":"Rua Rua Santo Ant\u00f3nio dos Capuchos 36 2\u00ba ESQ","entradas_repetidas":1,"host_listings_number":1},"geometry":{"type":"Point","coordinates":[-9.141685,38.721037]}},{"type":"Feature","properties":{"id":201,"year":"18","month":"08","normalized_date":0.4296875,"type":1,"ts":0.42,"freg":2,"weight":0.0,"endereco":"Travessa Travessa S\u00e3o Pl\u00e1cido 42 3\u00ba Dto.","entradas_repetidas":1,"host_listings_number":1},"geometry":{"type":"Point","coordinates":[-9.156481,38.715442]}},{"type":"Feature","properties":{"id":202,"year":"18","month":"08","normalized_date":0.4296875,"type":1,"ts":0.42,"freg":3,"weight":0.0,"endereco":"Rua Rua Cidade de Manchester 32 3 Esq","entradas_repetidas":1,"host_listings_number":1},"geometry":{"type":"Point","coordinates":[-9.132223,38.727793]}},{"type":"Feature","properties":{"id":203,"year":"18","month":"08","normalized_date":0.4296875,"type":1,"ts":0.42,"freg":8,"weight":0.0,"endereco":"Rua Rua Lu\u00eds Braille 8 1 B","entradas_repetidas":1,"host_listings_number":1},"geometry":{"type":"Point","coordinates":[-9.212643,38.695839]}},{"type":"Feature","properties":{"id":204,"year":"18","month":"10","normalized_date":0.4453125,"type":1,"ts":0.43,"freg":6,"weight":0.0,"endereco":"Rua Rua Oliveirinha 21/23  ","entradas_repetidas":1,"host_listings_number":1},"geometry":{"type":"Point","coordinates":[-9.129416,38.713345]}},{"type":"Feature","properties":{"id":205,"year":"18","month":"08","normalized_date":0.4296875,"type":1,"ts":0.42,"freg":5,"weight":0.0,"endereco":"Vila vila Maia, Rua 1 n\u00ba8 R/c direito 1350-403 8 r/c direito","entradas_repetidas":1,"host_listings_number":1},"geometry":{"type":"Point","coordinates":[-9.163499,38.715044]}},{"type":"Feature","properties":{"id":206,"year":"18","month":"08","normalized_date":0.4296875,"type":1,"ts":0.42,"freg":3,"weight":0.0,"endereco":"Rua Rua Dona Estef\u00e2nia 26 5\u00ba Esq","entradas_repetidas":1,"host_listings_number":1},"geometry":{"type":"Point","coordinates":[-9.140493,38.73044]}},{"type":"Feature","properties":{"id":207,"year":"18","month":"08","normalized_date":0.4296875,"type":1,"ts":0.42,"freg":18,"weight":0.0,"endereco":"Rua Rua Quinta do Jacinto 15 1\u00ba Esq.","entradas_repetidas":1,"host_listings_number":1},"geometry":{"type":"Point","coordinates":[-9.177361,38.708203]}},{"type":"Feature","properties":{"id":208,"year":"18","month":"08","normalized_date":0.4296875,"type":1,"ts":0.42,"freg":4,"weight":0.0,"endereco":"Rua Rua S\u00e3o Boaventura 93 2\u00ba Dto.","entradas_repetidas":1,"host_listings_number":1},"geometry":{"type":"Point","coordinates":[-9.146315,38.71466]}},{"type":"Feature","properties":{"id":209,"year":"18","month":"08","normalized_date":0.4296875,"type":3,"ts":0.42,"freg":4,"weight":0.0,"endereco":"1\u00aa Travessa Merc\u00eas 50 1\u00ba DTO/FTE","entradas_repetidas":1,"host_listings_number":1},"geometry":{"type":"Point","coordinates":[-9.147057,38.711416]}},{"type":"Feature","properties":{"id":210,"year":"18","month":"08","normalized_date":0.4296875,"type":1,"ts":0.42,"freg":10,"weight":0.0,"endereco":"Travessa Travessa Noronha 18 1\u00ba ","entradas_repetidas":1,"host_listings_number":1},"geometry":{"type":"Point","coordinates":[-9.15351,38.717296]}},{"type":"Feature","properties":{"id":211,"year":"18","month":"08","normalized_date":0.4296875,"type":1,"ts":0.42,"freg":8,"weight":0.0,"endereco":"Rua Rua Bartolomeu Dias 82 4\u00ba Esq","entradas_repetidas":1,"host_listings_number":1},"geometry":{"type":"Point","coordinates":[-9.211206,38.695951]}},{"type":"Feature","properties":{"id":212,"year":"18","month":"10","normalized_date":0.4453125,"type":1,"ts":0.44,"freg":1,"weight":0.0,"endereco":"Travessa Travessa Carmo 11 2\u00ba B","entradas_repetidas":1,"host_listings_number":1},"geometry":{"type":"Point","coordinates":[-9.141151,38.711437]}},{"type":"Feature","properties":{"id":213,"year":"18","month":"08","normalized_date":0.4296875,"type":1,"ts":0.42,"freg":1,"weight":0.0,"endereco":"Beco Beco Lapa 8 1 ","entradas_repetidas":1,"host_listings_number":1},"geometry":{"type":"Point","coordinates":[-9.125737,38.712761]}},{"type":"Feature","properties":{"id":214,"year":"18","month":"08","normalized_date":0.4296875,"type":1,"ts":0.42,"freg":3,"weight":0.0,"endereco":"Rua Rua Martim Vaz 51 1.\u00ba Direito","entradas_repetidas":1,"host_listings_number":1},"geometry":{"type":"Point","coordinates":[-9.138343,38.716493]}},{"type":"Feature","properties":{"id":215,"year":"18","month":"08","normalized_date":0.4296875,"type":1,"ts":0.42,"freg":4,"weight":0.0,"endereco":"Rua Rua dos Prazeres, n. 40, R/C Esquerdo, Lisboa 40 R/C Esquerdo","entradas_repetidas":1,"host_listings_number":1},"geometry":{"type":"Point","coordinates":[-9.15279,38.714984]}},{"type":"Feature","properties":{"id":216,"year":"18","month":"09","normalized_date":0.4375,"type":1,"ts":0.43,"freg":11,"weight":0.0,"endereco":"Rua Rua Manuel da Fonseca 4 5\u00ba D","entradas_repetidas":1,"host_listings_number":1},"geometry":{"type":"Point","coordinates":[-9.169391,38.749206]}},{"type":"Feature","properties":{"id":217,"year":"18","month":"09","normalized_date":0.4375,"type":1,"ts":0.42,"freg":13,"weight":0.0,"endereco":"Avenida Avenida Conde Valbom 107 4 ","entradas_repetidas":1,"host_listings_number":1},"geometry":{"type":"Point","coordinates":[-9.151807,38.737461]}},{"type":"Feature","properties":{"id":218,"year":"19","month":"01","normalized_date":0.46875,"type":1,"ts":0.46,"freg":3,"weight":0.0,"endereco":"Rua Rua Forno do Tijolo 71 R/C ","entradas_repetidas":1,"host_listings_number":1},"geometry":{"type":"Point","coordinates":[-9.134069,38.725688]}},{"type":"Feature","properties":{"id":219,"year":"18","month":"10","normalized_date":0.4453125,"type":1,"ts":0.43,"freg":7,"weight":0.0,"endereco":"Rua Rua Guarda-J\u00f3ias 32 C/v Esq","entradas_repetidas":1,"host_listings_number":1},"geometry":{"type":"Point","coordinates":[-9.193926,38.705766]}},{"type":"Feature","properties":{"id":220,"year":"18","month":"09","normalized_date":0.4375,"type":3,"ts":0.43,"freg":6,"weight":0.0,"endereco":"Rua Rua S\u00e3o Vicente 5 1 ","entradas_repetidas":1,"host_listings_number":1},"geometry":{"type":"Point","coordinates":[-9.129074,38.714615]}},{"type":"Feature","properties":{"id":221,"year":"18","month":"09","normalized_date":0.4375,"type":1,"ts":0.43,"freg":16,"weight":0.0,"endereco":"Rua Rua Jacinto Nunes 8 4\u00ba Dto.","entradas_repetidas":1,"host_listings_number":1},"geometry":{"type":"Point","coordinates":[-9.128695,38.73122]}},{"type":"Feature","properties":{"id":222,"year":"18","month":"10","normalized_date":0.4453125,"type":1,"ts":0.43,"freg":6,"weight":0.0,"endereco":"Rua Rua S\u00e3o Vicente 9 2\u00ba Esq.","entradas_repetidas":1,"host_listings_number":1},"geometry":{"type":"Point","coordinates":[-9.129211,38.714569]}},{"type":"Feature","properties":{"id":223,"year":"18","month":"09","normalized_date":0.4375,"type":2,"ts":0.43,"freg":3,"weight":0.0,"endereco":"Rua Rua Marques da Silva 65  ","entradas_repetidas":1,"host_listings_number":1},"geometry":{"type":"Point","coordinates":[-9.133563,38.729773]}},{"type":"Feature","properties":{"id":224,"year":"18","month":"10","normalized_date":0.4453125,"type":1,"ts":0.44,"freg":8,"weight":0.0,"endereco":"Rua Rua do Embaixador 3 2 ","entradas_repetidas":1,"host_listings_number":1},"geometry":{"type":"Point","coordinates":[-9.195397,38.697898]}},{"type":"Feature","properties":{"id":225,"year":"18","month":"10","normalized_date":0.4453125,"type":1,"ts":0.43,"freg":10,"weight":0.0,"endereco":"Cal\u00e7ada Cal\u00e7ada Patriarcal 1 CV Esq.","entradas_repetidas":1,"host_listings_number":1},"geometry":{"type":"Point","coordinates":[-9.146947,38.716659]}},{"type":"Feature","properties":{"id":226,"year":"18","month":"09","normalized_date":0.4375,"type":2,"ts":0.43,"freg":1,"weight":0.0,"endereco":"Rua Rua Damas 8  ","entradas_repetidas":1,"host_listings_number":1},"geometry":{"type":"Point","coordinates":[-9.131927,38.711411]}},{"type":"Feature","properties":{"id":227,"year":"18","month":"10","normalized_date":0.4453125,"type":3,"ts":0.43,"freg":13,"weight":0.0,"endereco":"Rua Rua Cruz Vermelha 11 1 Dto","entradas_repetidas":1,"host_listings_number":1},"geometry":{"type":"Point","coordinates":[-9.151,38.745422]}},{"type":"Feature","properties":{"id":228,"year":"18","month":"09","normalized_date":0.4375,"type":2,"ts":0.43,"freg":7,"weight":0.0,"endereco":"Rua Rua Jos\u00e9 Pinto Bastos 25  ","entradas_repetidas":1,"host_listings_number":1},"geometry":{"type":"Point","coordinates":[-9.207237,38.712598]}},{"type":"Feature","properties":{"id":229,"year":"18","month":"09","normalized_date":0.4375,"type":3,"ts":0.43,"freg":4,"weight":0.0,"endereco":"Rua Rua Luz Soriano 126 1\u00ba ","entradas_repetidas":1,"host_listings_number":1},"geometry":{"type":"Point","coordinates":[-9.145733,38.712904]}},{"type":"Feature","properties":{"id":230,"year":"18","month":"09","normalized_date":0.4375,"type":1,"ts":0.43,"freg":3,"weight":0.0,"endereco":"Rua Rua Damasceno Monteiro 95 0 B","entradas_repetidas":1,"host_listings_number":1},"geometry":{"type":"Point","coordinates":[-9.131676,38.722313]}},{"type":"Feature","properties":{"id":231,"year":"18","month":"10","normalized_date":0.4453125,"type":3,"ts":0.43,"freg":6,"weight":0.0,"endereco":"Travessa  Travessa do A\u00e7ougue  n\u00ba 2 a 4  ","entradas_repetidas":1,"host_listings_number":1},"geometry":{"type":"Point","coordinates":[-9.130655,38.714196]}},{"type":"Feature","properties":{"id":232,"year":"18","month":"09","normalized_date":0.4375,"type":1,"ts":0.43,"freg":4,"weight":0.0,"endereco":"Rua Rua Caetanos 2 a 6 3\u00ba I","entradas_repetidas":1,"host_listings_number":1},"geometry":{"type":"Point","coordinates":[-9.14623,38.711468]}},{"type":"Feature","properties":{"id":233,"year":"18","month":"10","normalized_date":0.4453125,"type":5,"ts":0.44,"freg":10,"weight":0.0,"endereco":"Avenida Avenida Duque Loul\u00e9 66 rch dto","entradas_repetidas":1,"host_listings_number":1},"geometry":{"type":"Point","coordinates":[-9.14568,38.727876]}},{"type":"Feature","properties":{"id":234,"year":"18","month":"09","normalized_date":0.4375,"type":3,"ts":0.43,"freg":6,"weight":0.0,"endereco":"Rua Rua Santa Marinha 15 R/C ","entradas_repetidas":1,"host_listings_number":1},"geometry":{"type":"Point","coordinates":[-9.130477,38.714414]}},{"type":"Feature","properties":{"id":235,"year":"18","month":"10","normalized_date":0.4453125,"type":3,"ts":0.43,"freg":10,"weight":0.0,"endereco":"Arco Arco Evaristo 5 2\u00ba ","entradas_repetidas":1,"host_listings_number":1},"geometry":{"type":"Point","coordinates":[-9.147301,38.716296]}},{"type":"Feature","properties":{"id":236,"year":"18","month":"01","normalized_date":0.375,"type":1,"ts":0.36,"freg":19,"weight":0.0,"endereco":"1\u00aa Rua PROF VITOR FONTES 17 1 ESQ","entradas_repetidas":1,"host_listings_number":1},"geometry":{"type":"Point","coordinates":[-9.163887,38.760045]}},{"type":"Feature","properties":{"id":237,"year":"18","month":"09","normalized_date":0.4375,"type":1,"ts":0.43,"freg":3,"weight":0.0,"endereco":"Travessa Travessa Rebelo da Silva 13 R/C Dto","entradas_repetidas":1,"host_listings_number":1},"geometry":{"type":"Point","coordinates":[-9.137224,38.732094]}},{"type":"Feature","properties":{"id":238,"year":"18","month":"09","normalized_date":0.4375,"type":1,"ts":0.43,"freg":1,"weight":0.0,"endereco":"Rua Rua S\u00e3o Pedro M\u00e1rtir 25 3 ","entradas_repetidas":1,"host_listings_number":1},"geometry":{"type":"Point","coordinates":[-9.135982,38.714448]}},{"type":"Feature","properties":{"id":239,"year":"18","month":"09","normalized_date":0.4375,"type":1,"ts":0.43,"freg":16,"weight":0.0,"endereco":"Rua Rua Castelo Branco Saraiva 33 2.\u00ba Drt","entradas_repetidas":1,"host_listings_number":1},"geometry":{"type":"Point","coordinates":[-9.127433,38.725574]}},{"type":"Feature","properties":{"id":240,"year":"18","month":"09","normalized_date":0.4375,"type":1,"ts":0.43,"freg":3,"weight":0.0,"endereco":"Rua Rua Ant\u00f3nio Pedro 107 S/CV D","entradas_repetidas":1,"host_listings_number":1},"geometry":{"type":"Point","coordinates":[-9.135516,38.730495]}},{"type":"Feature","properties":{"id":241,"year":"18","month":"09","normalized_date":0.4375,"type":1,"ts":0.43,"freg":1,"weight":0.0,"endereco":"Travessa Travessa Ch\u00e3o do Loureiro 6 R/C ","entradas_repetidas":1,"host_listings_number":1},"geometry":{"type":"Point","coordinates":[-9.134856,38.712052]}},{"type":"Feature","properties":{"id":242,"year":"18","month":"09","normalized_date":0.4375,"type":1,"ts":0.43,"freg":1,"weight":0.0,"endereco":"Rua Rua Madalena 152 3 Dto","entradas_repetidas":1,"host_listings_number":1},"geometry":{"type":"Point","coordinates":[-9.135946,38.712207]}},{"type":"Feature","properties":{"id":243,"year":"18","month":"09","normalized_date":0.4375,"type":1,"ts":0.43,"freg":5,"weight":0.0,"endereco":"Rua Rua Vicente Borga 83 RC ","entradas_repetidas":1,"host_listings_number":1},"geometry":{"type":"Point","coordinates":[-9.155742,38.708575]}},{"type":"Feature","properties":{"id":244,"year":"18","month":"09","normalized_date":0.4375,"type":1,"ts":0.43,"freg":8,"weight":0.0,"endereco":"Rua Rua Lu\u00eds Braille 15 RC ESQ","entradas_repetidas":1,"host_listings_number":1},"geometry":{"type":"Point","coordinates":[-9.213908,38.695988]}},{"type":"Feature","properties":{"id":245,"year":"18","month":"09","normalized_date":0.4375,"type":1,"ts":0.43,"freg":4,"weight":0.0,"endereco":"Rua Rua Boavista 170 1\u00ba ","entradas_repetidas":1,"host_listings_number":1},"geometry":{"type":"Point","coordinates":[-9.150369,38.709053]}},{"type":"Feature","properties":{"id":246,"year":"18","month":"09","normalized_date":0.4375,"type":4,"ts":0.43,"freg":15,"weight":0.0,"endereco":"Rua Rua Bar\u00e3o Sabrosa 274 2\u00ba Esq","entradas_repetidas":1,"host_listings_number":1},"geometry":{"type":"Point","coordinates":[-9.128585,38.739841]}},{"type":"Feature","properties":{"id":247,"year":"18","month":"09","normalized_date":0.4375,"type":3,"ts":0.43,"freg":4,"weight":0.0,"endereco":"Travessa Travessa Cara 19 2.\u00ba ","entradas_repetidas":1,"host_listings_number":1},"geometry":{"type":"Point","coordinates":[-9.144897,38.714011]}},{"type":"Feature","properties":{"id":248,"year":"18","month":"10","normalized_date":0.4453125,"type":1,"ts":0.43,"freg":2,"weight":0.0,"endereco":"Rua Rua Campo de Ourique 230 3 ","entradas_repetidas":1,"host_listings_number":1},"geometry":{"type":"Point","coordinates":[-9.166105,38.721139]}},{"type":"Feature","properties":{"id":249,"year":"18","month":"09","normalized_date":0.4375,"type":2,"ts":0.43,"freg":9,"weight":0.0,"endereco":"Rua Rua Epif\u00e2nio Dias 22  ","entradas_repetidas":1,"host_listings_number":1},"geometry":{"type":"Point","coordinates":[-9.134634,38.749905]}},{"type":"Feature","properties":{"id":250,"year":"18","month":"10","normalized_date":0.4453125,"type":1,"ts":0.43,"freg":1,"weight":0.0,"endereco":"Cal\u00e7ada Cal\u00e7ada S\u00e3o Vicente 45 Cave ","entradas_repetidas":1,"host_listings_number":1},"geometry":{"type":"Point","coordinates":[-9.128077,38.713638]}},{"type":"Feature","properties":{"id":251,"year":"18","month":"09","normalized_date":0.4375,"type":1,"ts":0.43,"freg":18,"weight":0.0,"endereco":"Cal\u00e7ada Cal\u00e7ada Tapada 105 3\u00ba Dt\u00ba","entradas_repetidas":1,"host_listings_number":1},"geometry":{"type":"Point","coordinates":[-9.183269,38.705924]}},{"type":"Feature","properties":{"id":252,"year":"18","month":"11","normalized_date":0.453125,"type":1,"ts":0.44,"freg":4,"weight":0.0,"endereco":"Rua Rua Rosa 148-156 4.\u00ba Frente","entradas_repetidas":1,"host_listings_number":1},"geometry":{"type":"Point","coordinates":[-9.145404,38.713277]}},{"type":"Feature","properties":{"id":253,"year":"18","month":"09","normalized_date":0.4375,"type":1,"ts":0.43,"freg":4,"weight":0.0,"endereco":"Rua da Rosa 59, 59B  ","entradas_repetidas":1,"host_listings_number":1},"geometry":{"type":"Point","coordinates":[-9.145433,38.712033]}},{"type":"Feature","properties":{"id":254,"year":"18","month":"09","normalized_date":0.4375,"type":1,"ts":0.43,"freg":16,"weight":0.0,"endereco":"Pra\u00e7a Pra\u00e7a Jo\u00e3o de Azevedo Coutinho 4 4 Esq Ret","entradas_repetidas":1,"host_listings_number":1},"geometry":{"type":"Point","coordinates":[-9.125384,38.729888]}},{"type":"Feature","properties":{"id":255,"year":"18","month":"05","normalized_date":0.40625,"type":3,"ts":0.4,"freg":1,"weight":0.0,"endereco":"Rua Rua Sapateiros 135 - 139  ","entradas_repetidas":1,"host_listings_number":1},"geometry":{"type":"Point","coordinates":[-9.13848,38.711391]}},{"type":"Feature","properties":{"id":256,"year":"18","month":"09","normalized_date":0.4375,"type":1,"ts":0.43,"freg":8,"weight":0.0,"endereco":"Rua Rua Jo\u00e3o de Bastos 7 R/C Dt\u00ba","entradas_repetidas":1,"host_listings_number":1},"geometry":{"type":"Point","coordinates":[-9.211983,38.696404]}},{"type":"Feature","properties":{"id":257,"year":"18","month":"09","normalized_date":0.4375,"type":3,"ts":0.43,"freg":1,"weight":0.0,"endereco":"Cal\u00e7ada Cal\u00e7ada Duque 19A  ","entradas_repetidas":1,"host_listings_number":1},"geometry":{"type":"Point","coordinates":[-9.141268,38.713444]}},{"type":"Feature","properties":{"id":258,"year":"18","month":"10","normalized_date":0.4453125,"type":1,"ts":0.43,"freg":4,"weight":0.0,"endereco":"Rua Rua Poiais de S\u00e3o Bento 2 1\u00ba ","entradas_repetidas":1,"host_listings_number":1},"geometry":{"type":"Point","coordinates":[-9.149937,38.71103]}},{"type":"Feature","properties":{"id":259,"year":"18","month":"09","normalized_date":0.4375,"type":1,"ts":0.42,"freg":16,"weight":0.0,"endereco":"Rua Rua Heliodoro Salgado 62 1 Drt","entradas_repetidas":1,"host_listings_number":1},"geometry":{"type":"Point","coordinates":[-9.130477,38.725536]}},{"type":"Feature","properties":{"id":260,"year":"18","month":"09","normalized_date":0.4375,"type":3,"ts":0.43,"freg":15,"weight":0.0,"endereco":"Rua Rua Oliveira Martins 41 4 Esq","entradas_repetidas":1,"host_listings_number":1},"geometry":{"type":"Point","coordinates":[-9.140107,38.744534]}},{"type":"Feature","properties":{"id":261,"year":"18","month":"09","normalized_date":0.4375,"type":4,"ts":0.43,"freg":3,"weight":0.0,"endereco":"Rua Rua Morais Soares - Pisos 1\u00badto/Esq., 2\u00baEsq., 3\u00badto/esq., 4\u00badto/esq. 173  ","entradas_repetidas":1,"host_listings_number":1},"geometry":{"type":"Point","coordinates":[-9.133798,38.733428]}},{"type":"Feature","properties":{"id":262,"year":"18","month":"10","normalized_date":0.4453125,"type":1,"ts":0.43,"freg":19,"weight":0.0,"endereco":"Rua Rua Am\u00edlcar Cabral 19 2 F","entradas_repetidas":1,"host_listings_number":1},"geometry":{"type":"Point","coordinates":[-9.152023,38.763951]}},{"type":"Feature","properties":{"id":263,"year":"18","month":"08","normalized_date":0.4296875,"type":1,"ts":0.42,"freg":4,"weight":0.0,"endereco":"Rua da Horta Seca 1 a 3 4\u00ba ","entradas_repetidas":1,"host_listings_number":1},"geometry":{"type":"Point","coordinates":[-9.143823,38.710272]}},{"type":"Feature","properties":{"id":264,"year":"18","month":"10","normalized_date":0.4453125,"type":1,"ts":0.43,"freg":6,"weight":0.0,"endereco":"Rua Rua Leite de Vasconcelos 23 R/C Dto","entradas_repetidas":1,"host_listings_number":1},"geometry":{"type":"Point","coordinates":[-9.123931,38.717685]}},{"type":"Feature","properties":{"id":265,"year":"18","month":"08","normalized_date":0.4296875,"type":1,"ts":0.42,"freg":1,"weight":0.0,"endereco":"Travessa Travessa Santo Ant\u00f3nio da S\u00e9 2 3 ","entradas_repetidas":1,"host_listings_number":1},"geometry":{"type":"Point","coordinates":[-9.133542,38.709458]}},{"type":"Feature","properties":{"id":266,"year":"18","month":"09","normalized_date":0.4375,"type":1,"ts":0.43,"freg":6,"weight":0.0,"endereco":"Rua Rua Voz do Oper\u00e1rio 5 1\u00ba Esq.","entradas_repetidas":1,"host_listings_number":1},"geometry":{"type":"Point","coordinates":[-9.128933,38.715202]}},{"type":"Feature","properties":{"id":267,"year":"18","month":"11","normalized_date":0.453125,"type":1,"ts":0.44,"freg":10,"weight":0.0,"endereco":"Rua Rua Rodrigues Sampaio 52 3 ","entradas_repetidas":1,"host_listings_number":1},"geometry":{"type":"Point","coordinates":[-9.145947,38.722397]}},{"type":"Feature","properties":{"id":268,"year":"18","month":"09","normalized_date":0.4375,"type":1,"ts":0.43,"freg":18,"weight":0.0,"endereco":"1\u00aa Rua Amadeu de Sousa Cardoso 10 2 Dto","entradas_repetidas":1,"host_listings_number":1},"geometry":{"type":"Point","coordinates":[-9.184125,38.703738]}},{"type":"Feature","properties":{"id":269,"year":"18","month":"10","normalized_date":0.4453125,"type":1,"ts":0.44,"freg":4,"weight":0.0,"endereco":"Rua Rua da Bica de Duarte Belo 40 1 Esq","entradas_repetidas":1,"host_listings_number":1},"geometry":{"type":"Point","coordinates":[-9.145984,38.710177]}},{"type":"Feature","properties":{"id":270,"year":"18","month":"09","normalized_date":0.4375,"type":1,"ts":0.43,"freg":16,"weight":0.0,"endereco":"Rua Rua Martins Sarmento 13 2 esquerdo","entradas_repetidas":1,"host_listings_number":1},"geometry":{"type":"Point","coordinates":[-9.128658,38.729582]}},{"type":"Feature","properties":{"id":271,"year":"18","month":"09","normalized_date":0.4375,"type":1,"ts":0.43,"freg":16,"weight":0.0,"endereco":"Rua Rua Actor Vale 8 1 Esq","entradas_repetidas":1,"host_listings_number":1},"geometry":{"type":"Point","coordinates":[-9.130342,38.733767]}},{"type":"Feature","properties":{"id":272,"year":"18","month":"10","normalized_date":0.4453125,"type":1,"ts":0.43,"freg":6,"weight":0.0,"endereco":"Beco Beco Mirante 48 1 ","entradas_repetidas":1,"host_listings_number":1},"geometry":{"type":"Point","coordinates":[-9.122453,38.717469]}},{"type":"Feature","properties":{"id":273,"year":"18","month":"09","normalized_date":0.4375,"type":1,"ts":0.43,"freg":20,"weight":0.0,"endereco":"Rua Rua Vice Almirante Augusto de Castro Guedes 10 1\u00ba D","entradas_repetidas":1,"host_listings_number":1},"geometry":{"type":"Point","coordinates":[-9.118838,38.778196]}},{"type":"Feature","properties":{"id":274,"year":"18","month":"09","normalized_date":0.4375,"type":1,"ts":0.43,"freg":3,"weight":0.0,"endereco":"Rua Rua Anjos 36 B RC ","entradas_repetidas":1,"host_listings_number":1},"geometry":{"type":"Point","coordinates":[-9.135709,38.723692]}},{"type":"Feature","properties":{"id":275,"year":"18","month":"09","normalized_date":0.4375,"type":1,"ts":0.43,"freg":3,"weight":0.0,"endereco":"Rua Rua Zaire 12 R/C ","entradas_repetidas":1,"host_listings_number":1},"geometry":{"type":"Point","coordinates":[-9.133786,38.726024]}},{"type":"Feature","properties":{"id":276,"year":"18","month":"09","normalized_date":0.4375,"type":1,"ts":0.43,"freg":4,"weight":0.0,"endereco":"Rua Rua Sol A Santa Catarina 33 B R/C ","entradas_repetidas":1,"host_listings_number":1},"geometry":{"type":"Point","coordinates":[-9.149503,38.710395]}},{"type":"Feature","properties":{"id":277,"year":"18","month":"10","normalized_date":0.4453125,"type":1,"ts":0.44,"freg":14,"weight":0.0,"endereco":"Rua Rua Neves Costa 43  ","entradas_repetidas":1,"host_listings_number":1},"geometry":{"type":"Point","coordinates":[-9.189068,38.759919]}},{"type":"Feature","properties":{"id":278,"year":"18","month":"09","normalized_date":0.4375,"type":1,"ts":0.43,"freg":1,"weight":0.0,"endereco":"Escadinhas Escadinhas S\u00e3o Miguel 6 Rc. ","entradas_repetidas":1,"host_listings_number":1},"geometry":{"type":"Point","coordinates":[-9.129832,38.711204]}},{"type":"Feature","properties":{"id":279,"year":"18","month":"09","normalized_date":0.4375,"type":1,"ts":0.43,"freg":19,"weight":0.0,"endereco":"Alameda Alameda da M\u00fasica 26 8 B","entradas_repetidas":1,"host_listings_number":1},"geometry":{"type":"Point","coordinates":[-9.150677,38.77637]}},{"type":"Feature","properties":{"id":280,"year":"18","month":"09","normalized_date":0.4375,"type":1,"ts":0.43,"freg":16,"weight":0.0,"endereco":"Rua Rua Sebasti\u00e3o Saraiva Lima 48 2.\u00ba Dto.","entradas_repetidas":1,"host_listings_number":1},"geometry":{"type":"Point","coordinates":[-9.130556,38.732035]}},{"type":"Feature","properties":{"id":281,"year":"18","month":"07","normalized_date":0.421875,"type":3,"ts":0.41,"freg":8,"weight":0.0,"endereco":"Rua Rua Lucilia do Carmo 1A Rc. A","entradas_repetidas":1,"host_listings_number":1},"geometry":{"type":"Point","coordinates":[-9.214544,38.715143]}},{"type":"Feature","properties":{"id":282,"year":"18","month":"10","normalized_date":0.4453125,"type":1,"ts":0.43,"freg":16,"weight":0.0,"endereco":"Rua Rua Her\u00f3is de Quionga 2 2\u00ba Dto","entradas_repetidas":1,"host_listings_number":1},"geometry":{"type":"Point","coordinates":[-9.132927,38.730346]}},{"type":"Feature","properties":{"id":283,"year":"18","month":"09","normalized_date":0.4375,"type":1,"ts":0.43,"freg":3,"weight":0.0,"endereco":"Rua Rua Funchal 11 2 Dto","entradas_repetidas":1,"host_listings_number":1},"geometry":{"type":"Point","coordinates":[-9.140099,38.734194]}},{"type":"Feature","properties":{"id":284,"year":"18","month":"09","normalized_date":0.4375,"type":1,"ts":0.43,"freg":6,"weight":0.0,"endereco":"Rua Rua Bela Vista \u00e0 Gra\u00e7a 57 1\u00ba Esq","entradas_repetidas":1,"host_listings_number":1},"geometry":{"type":"Point","coordinates":[-9.126099,38.718955]}},{"type":"Feature","properties":{"id":285,"year":"19","month":"07","normalized_date":0.515625,"type":2,"ts":0.5,"freg":1,"weight":0.0,"endereco":"Beco Alegrete 3, 5 e 7  ","entradas_repetidas":1,"host_listings_number":1},"geometry":{"type":"Point","coordinates":[-9.134248,38.717922]}},{"type":"Feature","properties":{"id":286,"year":"19","month":"01","normalized_date":0.46875,"type":1,"ts":0.46,"freg":1,"weight":0.0,"endereco":"Rua Rua Serpa Pinto 12 B 1\u00ba ","entradas_repetidas":1,"host_listings_number":1},"geometry":{"type":"Point","coordinates":[-9.141602,38.710897]}},{"type":"Feature","properties":{"id":287,"year":"18","month":"10","normalized_date":0.4453125,"type":1,"ts":0.44,"freg":13,"weight":0.0,"endereco":"Avenida Avenida Barbosa Du Bocage 21 1\u00ba Esq","entradas_repetidas":1,"host_listings_number":1},"geometry":{"type":"Point","coordinates":[-9.143985,38.740582]}},{"type":"Feature","properties":{"id":288,"year":"18","month":"11","normalized_date":0.453125,"type":1,"ts":0.44,"freg":17,"weight":0.0,"endereco":"Avenida Avenida Peregrina\u00e7\u00e3o 10 6\u00ba B ","entradas_repetidas":1,"host_listings_number":1},"geometry":{"type":"Point","coordinates":[-9.09817,38.781464]}},{"type":"Feature","properties":{"id":289,"year":"18","month":"12","normalized_date":0.4609375,"type":1,"ts":0.45,"freg":3,"weight":0.0,"endereco":"Avenida Avenida Almirante Reis 173 3\u00ba Dt\u00ba","entradas_repetidas":1,"host_listings_number":1},"geometry":{"type":"Point","coordinates":[-9.134266,38.734844]}},{"type":"Feature","properties":{"id":290,"year":"18","month":"10","normalized_date":0.4453125,"type":1,"ts":0.44,"freg":5,"weight":0.0,"endereco":"Travessa Travessa Pasteleiro 37 2\u00ba ","entradas_repetidas":1,"host_listings_number":1},"geometry":{"type":"Point","coordinates":[-9.154138,38.708967]}},{"type":"Feature","properties":{"id":291,"year":"19","month":"03","normalized_date":0.484375,"type":1,"ts":0.47,"freg":2,"weight":0.0,"endereco":"Rua Rua Cabo 84 R/C ","entradas_repetidas":1,"host_listings_number":1},"geometry":{"type":"Point","coordinates":[-9.161315,38.7193]}},{"type":"Feature","properties":{"id":292,"year":"19","month":"03","normalized_date":0.484375,"type":1,"ts":0.47,"freg":11,"weight":0.0,"endereco":"Avenida Avenida Columbano Bordalo Pinheiro 70 7\u00ba F","entradas_repetidas":1,"host_listings_number":1},"geometry":{"type":"Point","coordinates":[-9.162991,38.738623]}},{"type":"Feature","properties":{"id":293,"year":"19","month":"08","normalized_date":0.5234375,"type":1,"ts":0.51,"freg":6,"weight":0.0,"endereco":"Travessa Travessa Olival \u00e0 Gra\u00e7a 19  ","entradas_repetidas":1,"host_listings_number":1},"geometry":{"type":"Point","coordinates":[-9.124574,38.719238]}},{"type":"Feature","properties":{"id":294,"year":"18","month":"10","normalized_date":0.4453125,"type":1,"ts":0.44,"freg":4,"weight":0.0,"endereco":"Rua Rua Luz Soriano 138 1\u00ba Dt\u00ba","entradas_repetidas":1,"host_listings_number":1},"geometry":{"type":"Point","coordinates":[-9.145747,38.713011]}},{"type":"Feature","properties":{"id":295,"year":"19","month":"03","normalized_date":0.484375,"type":1,"ts":0.47,"freg":16,"weight":0.0,"endereco":"Avenida Avenida General Ro\u00e7adas 24 Casa 12 R/C ESQ","entradas_repetidas":1,"host_listings_number":1},"geometry":{"type":"Point","coordinates":[-9.128193,38.724351]}},{"type":"Feature","properties":{"id":296,"year":"19","month":"03","normalized_date":0.484375,"type":1,"ts":0.47,"freg":3,"weight":0.0,"endereco":"Rua Rua General Farinha Beir\u00e3o 23 4\u00ba ","entradas_repetidas":1,"host_listings_number":1},"geometry":{"type":"Point","coordinates":[-9.14129,38.728103]}},{"type":"Feature","properties":{"id":297,"year":"19","month":"03","normalized_date":0.484375,"type":1,"ts":0.47,"freg":3,"weight":0.0,"endereco":"Travessa Travessa Freiras a Arroios 6 2 3A","entradas_repetidas":1,"host_listings_number":1},"geometry":{"type":"Point","coordinates":[-9.135535,38.734971]}},{"type":"Feature","properties":{"id":298,"year":"19","month":"02","normalized_date":0.4765625,"type":5,"ts":0.47,"freg":21,"weight":0.0,"endereco":"Rua Rua Dom Ant\u00f3nio Caetano de Sousa 5 1\u00ba esq","entradas_repetidas":1,"host_listings_number":1},"geometry":{"type":"Point","coordinates":[-9.19931,38.75235]}},{"type":"Feature","properties":{"id":299,"year":"19","month":"02","normalized_date":0.4765625,"type":1,"ts":0.47,"freg":5,"weight":0.0,"endereco":"Travessa Travessa Concei\u00e7\u00e3o \u00e0 Lapa 7 3 ","entradas_repetidas":1,"host_listings_number":1},"geometry":{"type":"Point","coordinates":[-9.163213,38.710321]}},{"type":"Feature","properties":{"id":300,"year":"19","month":"03","normalized_date":0.484375,"type":1,"ts":0.47,"freg":6,"weight":0.0,"endereco":"Travessa Travessa Pereira 13  ","entradas_repetidas":1,"host_listings_number":1},"geometry":{"type":"Point","coordinates":[-9.128205,38.717451]}},{"type":"Feature","properties":{"id":301,"year":"19","month":"03","normalized_date":0.484375,"type":1,"ts":0.47,"freg":13,"weight":0.0,"endereco":"Rua Rua Ramalho Ortig\u00e3o 16 Cave  Esq","entradas_repetidas":1,"host_listings_number":1},"geometry":{"type":"Point","coordinates":[-9.156244,38.735648]}},{"type":"Feature","properties":{"id":302,"year":"19","month":"03","normalized_date":0.484375,"type":1,"ts":0.47,"freg":1,"weight":0.0,"endereco":"Rua Rua Carmo 69 4\u00ba Dt\u00ba","entradas_repetidas":1,"host_listings_number":1},"geometry":{"type":"Point","coordinates":[-9.139698,38.71197]}},{"type":"Feature","properties":{"id":303,"year":"19","month":"03","normalized_date":0.484375,"type":5,"ts":0.47,"freg":22,"weight":0.0,"endereco":"Rua Rua Vicente Ribeiro 31  ","entradas_repetidas":1,"host_listings_number":1},"geometry":{"type":"Point","coordinates":[-9.113103,38.732198]}},{"type":"Feature","properties":{"id":304,"year":"19","month":"02","normalized_date":0.4765625,"type":3,"ts":0.47,"freg":1,"weight":0.0,"endereco":"Rua Rua Assun\u00e7\u00e3o 52 1 ","entradas_repetidas":1,"host_listings_number":1},"geometry":{"type":"Point","coordinates":[-9.137809,38.711795]}},{"type":"Feature","properties":{"id":305,"year":"19","month":"03","normalized_date":0.484375,"type":5,"ts":0.47,"freg":10,"weight":0.0,"endereco":"Rua Rua Santa Marta 39 3 ","entradas_repetidas":1,"host_listings_number":1},"geometry":{"type":"Point","coordinates":[-9.145813,38.723479]}},{"type":"Feature","properties":{"id":306,"year":"19","month":"03","normalized_date":0.484375,"type":1,"ts":0.47,"freg":10,"weight":0.0,"endereco":"Rua Rua Luciano Cordeiro 54 4 Dt","entradas_repetidas":1,"host_listings_number":1},"geometry":{"type":"Point","coordinates":[-9.144115,38.725236]}},{"type":"Feature","properties":{"id":307,"year":"19","month":"03","normalized_date":0.484375,"type":1,"ts":0.47,"freg":19,"weight":0.0,"endereco":"Rua Rua Ant\u00f3nio Lopes Ribeiro 7 1\u00ba D","entradas_repetidas":1,"host_listings_number":1},"geometry":{"type":"Point","coordinates":[-9.153771,38.7674]}},{"type":"Feature","properties":{"id":308,"year":"19","month":"03","normalized_date":0.484375,"type":1,"ts":0.47,"freg":16,"weight":0.0,"endereco":"Cal\u00e7ada Cal\u00e7ada Po\u00e7o dos Mouros 30 4\u00ba frente","entradas_repetidas":1,"host_listings_number":1},"geometry":{"type":"Point","coordinates":[-9.130772,38.731279]}},{"type":"Feature","properties":{"id":309,"year":"19","month":"04","normalized_date":0.4921875,"type":1,"ts":0.48,"freg":2,"weight":0.0,"endereco":"Travessa Travessa S\u00e3o Pl\u00e1cido 1  ","entradas_repetidas":1,"host_listings_number":1},"geometry":{"type":"Point","coordinates":[-9.156375,38.714704]}},{"type":"Feature","properties":{"id":310,"year":"19","month":"04","normalized_date":0.4921875,"type":1,"ts":0.48,"freg":18,"weight":0.0,"endereco":"Rua Rua Quinta do Almargem 17 R/C Esq","entradas_repetidas":1,"host_listings_number":1},"geometry":{"type":"Point","coordinates":[-9.192711,38.700845]}},{"type":"Feature","properties":{"id":311,"year":"19","month":"05","normalized_date":0.5,"type":1,"ts":0.49,"freg":12,"weight":0.0,"endereco":"Rua Rua Dom Carlos de Mascarenhas 107 3 Esq","entradas_repetidas":1,"host_listings_number":1},"geometry":{"type":"Point","coordinates":[-9.165686,38.72528]}},{"type":"Feature","properties":{"id":312,"year":"19","month":"04","normalized_date":0.4921875,"type":5,"ts":0.48,"freg":6,"weight":0.0,"endereco":"Rua Rua Cardal \u00e0 Gra\u00e7a 3 1\u00ba Esq","entradas_repetidas":1,"host_listings_number":1},"geometry":{"type":"Point","coordinates":[-9.127155,38.719631]}},{"type":"Feature","properties":{"id":313,"year":"19","month":"04","normalized_date":0.4921875,"type":1,"ts":0.48,"freg":3,"weight":0.0,"endereco":"Rua Rua Macau 3 1\u00ba Esq","entradas_repetidas":1,"host_listings_number":1},"geometry":{"type":"Point","coordinates":[-9.1321,38.724687]}},{"type":"Feature","properties":{"id":314,"year":"19","month":"04","normalized_date":0.4921875,"type":1,"ts":0.48,"freg":16,"weight":0.0,"endereco":"Rua Rua Morais Soares 95 3\u00ba Esq","entradas_repetidas":1,"host_listings_number":1},"geometry":{"type":"Point","coordinates":[-9.131213,38.732766]}},{"type":"Feature","properties":{"id":315,"year":"19","month":"03","normalized_date":0.484375,"type":1,"ts":0.47,"freg":23,"weight":0.0,"endereco":"Rua Rua Jo\u00e3o Amaral 22.1.1 7 esq","entradas_repetidas":1,"host_listings_number":1},"geometry":{"type":"Point","coordinates":[-9.152828,38.782093]}},{"type":"Feature","properties":{"id":316,"year":"19","month":"04","normalized_date":0.4921875,"type":1,"ts":0.48,"freg":17,"weight":0.0,"endereco":"Rua Rua Zambeze 5 2 C","entradas_repetidas":1,"host_listings_number":1},"geometry":{"type":"Point","coordinates":[-9.09578,38.777237]}},{"type":"Feature","properties":{"id":317,"year":"19","month":"03","normalized_date":0.484375,"type":1,"ts":0.47,"freg":16,"weight":0.0,"endereco":"Rua Rua Penha de Fran\u00e7a 123 4 Dt\u00ba","entradas_repetidas":1,"host_listings_number":1},"geometry":{"type":"Point","coordinates":[-9.129914,38.725141]}},{"type":"Feature","properties":{"id":318,"year":"19","month":"05","normalized_date":0.5,"type":1,"ts":0.49,"freg":3,"weight":0.0,"endereco":"Travessa Travessa Forno do Torel 4  ","entradas_repetidas":1,"host_listings_number":1},"geometry":{"type":"Point","coordinates":[-9.140281,38.719175]}},{"type":"Feature","properties":{"id":319,"year":"19","month":"03","normalized_date":0.484375,"type":1,"ts":0.48,"freg":3,"weight":0.0,"endereco":"Rua Rua Conde Redondo 4 1\u00ba Dto.","entradas_repetidas":1,"host_listings_number":1},"geometry":{"type":"Point","coordinates":[-9.142896,38.72781]}},{"type":"Feature","properties":{"id":320,"year":"19","month":"03","normalized_date":0.484375,"type":1,"ts":0.47,"freg":16,"weight":0.0,"endereco":"Rua Rua Sol A Chelas 72 R/C DTO","entradas_repetidas":1,"host_listings_number":1},"geometry":{"type":"Point","coordinates":[-9.127413,38.731918]}},{"type":"Feature","properties":{"id":321,"year":"19","month":"04","normalized_date":0.4921875,"type":1,"ts":0.48,"freg":2,"weight":0.0,"endereco":"Rua Rua Silva Carvalho 307 3\u00ba ","entradas_repetidas":1,"host_listings_number":1},"geometry":{"type":"Point","coordinates":[-9.160688,38.721881]}},{"type":"Feature","properties":{"id":322,"year":"19","month":"04","normalized_date":0.4921875,"type":1,"ts":0.48,"freg":10,"weight":0.0,"endereco":"Rua Rua Cardal A S\u00e3o Jos\u00e9 24 2\u00ba Dt\u00ba","entradas_repetidas":1,"host_listings_number":1},"geometry":{"type":"Point","coordinates":[-9.143858,38.720478]}},{"type":"Feature","properties":{"id":323,"year":"19","month":"04","normalized_date":0.4921875,"type":1,"ts":0.48,"freg":10,"weight":0.0,"endereco":"Rua Rua Cec\u00edlio de Sousa 51 R/C ","entradas_repetidas":1,"host_listings_number":1},"geometry":{"type":"Point","coordinates":[-9.150204,38.715935]}},{"type":"Feature","properties":{"id":324,"year":"19","month":"04","normalized_date":0.4921875,"type":1,"ts":0.48,"freg":3,"weight":0.0,"endereco":"Escadas Escadas Monte 8 1\u00ba Frente","entradas_repetidas":1,"host_listings_number":1},"geometry":{"type":"Point","coordinates":[-9.133919,38.719032]}},{"type":"Feature","properties":{"id":325,"year":"19","month":"03","normalized_date":0.484375,"type":1,"ts":0.47,"freg":11,"weight":0.0,"endereco":"Rua Rua Padre Francisco \u00c1lvares 23 3 Esq","entradas_repetidas":1,"host_listings_number":1},"geometry":{"type":"Point","coordinates":[-9.175059,38.745128]}},{"type":"Feature","properties":{"id":326,"year":"19","month":"02","normalized_date":0.4765625,"type":1,"ts":0.47,"freg":17,"weight":0.0,"endereco":"Passeio Passeio Levante 2 9 C","entradas_repetidas":1,"host_listings_number":1},"geometry":{"type":"Point","coordinates":[-9.095513,38.784556]}},{"type":"Feature","properties":{"id":327,"year":"19","month":"01","normalized_date":0.46875,"type":5,"ts":0.46,"freg":8,"weight":0.0,"endereco":"Rua Rua Galv\u00e3o 29 3 ","entradas_repetidas":1,"host_listings_number":1},"geometry":{"type":"Point","coordinates":[-9.203642,38.703615]}},{"type":"Feature","properties":{"id":328,"year":"15","month":"10","normalized_date":0.1640625,"type":4,"ts":0.16,"freg":9,"weight":0.0,"endereco":"Rua Rua Viana da Mota 28  ","entradas_repetidas":1,"host_listings_number":1},"geometry":{"type":"Point","coordinates":[-9.133395,38.752366]}},{"type":"Feature","properties":{"id":329,"year":"19","month":"05","normalized_date":0.5,"type":1,"ts":0.49,"freg":5,"weight":0.0,"endereco":"Rua Rua Cova da Moura 37 2\u00ba ","entradas_repetidas":1,"host_listings_number":1},"geometry":{"type":"Point","coordinates":[-9.16937,38.706193]}},{"type":"Feature","properties":{"id":330,"year":"19","month":"02","normalized_date":0.4765625,"type":5,"ts":0.46,"freg":17,"weight":0.0,"endereco":"Rua Rua Jangada de Pedra 1 BL B 3 B","entradas_repetidas":1,"host_listings_number":1},"geometry":{"type":"Point","coordinates":[-9.097923,38.757094]}},{"type":"Feature","properties":{"id":331,"year":"19","month":"03","normalized_date":0.484375,"type":1,"ts":0.47,"freg":6,"weight":0.0,"endereco":"Rua Rua Bela Vista \u00e0 Gra\u00e7a 17 R/C Esq.","entradas_repetidas":1,"host_listings_number":1},"geometry":{"type":"Point","coordinates":[-9.123896,38.718771]}},{"type":"Feature","properties":{"id":332,"year":"19","month":"03","normalized_date":0.484375,"type":1,"ts":0.47,"freg":10,"weight":0.0,"endereco":"Rua Rua Esperan\u00e7a do Cardal 40 e 42 R/c ","entradas_repetidas":1,"host_listings_number":1},"geometry":{"type":"Point","coordinates":[-9.14365,38.720411]}},{"type":"Feature","properties":{"id":333,"year":"18","month":"12","normalized_date":0.4609375,"type":1,"ts":0.45,"freg":1,"weight":0.0,"endereco":"Rua Rua S\u00e3o Juli\u00e3o 93 1 Blobo B","entradas_repetidas":1,"host_listings_number":1},"geometry":{"type":"Point","coordinates":[-9.136966,38.709055]}},{"type":"Feature","properties":{"id":334,"year":"19","month":"03","normalized_date":0.484375,"type":1,"ts":0.48,"freg":8,"weight":0.0,"endereco":"Travessa Travessa Zebras 27 r/c ","entradas_repetidas":1,"host_listings_number":1},"geometry":{"type":"Point","coordinates":[-9.198897,38.699118]}},