{"type":"FeatureCollection","features":[{"type":"Feature","properties":{"id":1,"year":"12","month":"09","normalized_date":0,"type":3,"ts":0,"freg":1,"weight":0.0,"endereco":"P\u00e1tio S\u00e3o Salvador 22  ","entradas_repetidas":1,"host_listings_number":1},"geometry":{"type":"Point","coordinates":[-8.614323,41.142069]}},{"type":"Feature","properties":{"id":2,"year":"19","month":"07","normalized_date":0.515625,"type":1,"ts":0.5,"freg":6,"weight":0.0,"endereco":"Rua Rua Esta\u00e7\u00e3o 161 1 frente","entradas_repetidas":1,"host_listings_number":1},"geometry":{"type":"Point","coordinates":[-8.58685,41.147516]}},{"type":"Feature","properties":{"id":3,"year":"20","month":"02","normalized_date":0.5703125,"type":1,"ts":0.55,"freg":1,"weight":0.0,"endereco":"Rua Rua Bonjardim 812 1\u00ba Traseiras","entradas_repetidas":1,"host_listings_number":1},"geometry":{"type":"Point","coordinates":[-8.607664,41.154593]}},{"type":"Feature","properties":{"id":4,"year":"22","month":"01","normalized_date":0.75,"type":3,"ts":0.73,"freg":1,"weight":0.0,"endereco":"Largo Largo L\u00f3ios 74  ","entradas_repetidas":1,"host_listings_number":1},"geometry":{"type":"Point","coordinates":[-8.612221,41.145419]}},{"type":"Feature","properties":{"id":5,"year":"20","month":"02","normalized_date":0.5703125,"type":4,"ts":0.55,"freg":1,"weight":0.0,"endereco":"Rua Rua Fernandes Tom\u00e1s 794 2\u00ba e 3\u00ba ","entradas_repetidas":1,"host_listings_number":1},"geometry":{"type":"Point","coordinates":[-8.607852,41.15029]}},{"type":"Feature","properties":{"id":6,"year":"20","month":"02","normalized_date":0.5703125,"type":1,"ts":0.56,"freg":6,"weight":0.0,"endereco":"Pra\u00e7a Pra\u00e7a Corujeira 317 1 ","entradas_repetidas":1,"host_listings_number":1},"geometry":{"type":"Point","coordinates":[-8.5799,41.158422]}},{"type":"Feature","properties":{"id":7,"year":"20","month":"02","normalized_date":0.5703125,"type":1,"ts":0.56,"freg":2,"weight":0.0,"endereco":"Rua Rua Santo Ildefonso 381  ","entradas_repetidas":1,"host_listings_number":1},"geometry":{"type":"Point","coordinates":[-8.60091,41.147483]}},{"type":"Feature","properties":{"id":8,"year":"20","month":"02","normalized_date":0.5703125,"type":1,"ts":0.56,"freg":1,"weight":0.0,"endereco":"Largo Largo Ramada Alta 32 R/C Drt.","entradas_repetidas":1,"host_listings_number":1},"geometry":{"type":"Point","coordinates":[-8.621104,41.160279]}},{"type":"Feature","properties":{"id":9,"year":"20","month":"02","normalized_date":0.5703125,"type":1,"ts":0.56,"freg":2,"weight":0.0,"endereco":"Rua Rua Joaquim Ant\u00f3nio de Aguiar 147 1 ANDAR CENTRO","entradas_repetidas":1,"host_listings_number":1},"geometry":{"type":"Point","coordinates":[-8.597701,41.145084]}},{"type":"Feature","properties":{"id":10,"year":"20","month":"03","normalized_date":0.578125,"type":1,"ts":0.56,"freg":2,"weight":0.0,"endereco":"Rua Rua Santos Pousada 765 4 DTO","entradas_repetidas":1,"host_listings_number":1},"geometry":{"type":"Point","coordinates":[-8.599366,41.15563]}},{"type":"Feature","properties":{"id":11,"year":"20","month":"03","normalized_date":0.578125,"type":1,"ts":0.57,"freg":3,"weight":0.0,"endereco":"Via Via Panor\u00e2mica Edgar Cardoso 494 3 B","entradas_repetidas":1,"host_listings_number":1},"geometry":{"type":"Point","coordinates":[-8.642952,41.148796]}},{"type":"Feature","properties":{"id":12,"year":"20","month":"04","normalized_date":0.5859375,"type":1,"ts":0.57,"freg":5,"weight":0.0,"endereco":"Rua Rua Senhora Luz 432 5 ","entradas_repetidas":1,"host_listings_number":1},"geometry":{"type":"Point","coordinates":[-8.677858,41.15261]}},{"type":"Feature","properties":{"id":13,"year":"20","month":"03","normalized_date":0.578125,"type":1,"ts":0.57,"freg":6,"weight":0.0,"endereco":"Rua Justino Teixeira 67 1 Esquerdo","entradas_repetidas":1,"host_listings_number":1},"geometry":{"type":"Point","coordinates":[-8.586326,41.149634]}},{"type":"Feature","properties":{"id":14,"year":"20","month":"06","normalized_date":0.6015625,"type":1,"ts":0.59,"freg":1,"weight":0.0,"endereco":"Rua Rua Gon\u00e7alo Crist\u00f3v\u00e3o 236 2\u00ba Esq Centro","entradas_repetidas":1,"host_listings_number":1},"geometry":{"type":"Point","coordinates":[-8.6094,41.153624]}},{"type":"Feature","properties":{"id":15,"year":"20","month":"03","normalized_date":0.578125,"type":1,"ts":0.56,"freg":2,"weight":0.0,"endereco":"Rua Visconde B\u00f3beda 98 1\u00ba esq","entradas_repetidas":1,"host_listings_number":1},"geometry":{"type":"Point","coordinates":[-8.600416,41.146797]}},{"type":"Feature","properties":{"id":16,"year":"20","month":"04","normalized_date":0.5859375,"type":1,"ts":0.57,"freg":1,"weight":0.0,"endereco":"Rua Rua Para\u00edso 126 4.\u00ba DT. Rec","entradas_repetidas":1,"host_listings_number":1},"geometry":{"type":"Point","coordinates":[-8.608685,41.15741]}},{"type":"Feature","properties":{"id":17,"year":"20","month":"06","normalized_date":0.6015625,"type":1,"ts":0.58,"freg":3,"weight":0.0,"endereco":"Largo Largo do Adro  2A 2 ","entradas_repetidas":1,"host_listings_number":1},"geometry":{"type":"Point","coordinates":[-8.63029,41.146275]}},{"type":"Feature","properties":{"id":18,"year":"20","month":"02","normalized_date":0.5703125,"type":1,"ts":0.55,"freg":3,"weight":0.0,"endereco":"Avenida Avenida Boavista 1185 1 dto","entradas_repetidas":1,"host_listings_number":1},"geometry":{"type":"Point","coordinates":[-8.637583,41.1593]}},{"type":"Feature","properties":{"id":19,"year":"20","month":"02","normalized_date":0.5703125,"type":1,"ts":0.56,"freg":1,"weight":0.0,"endereco":"Rua Rua Dami\u00e3o de G\u00f3is 446 6 Esq","entradas_repetidas":1,"host_listings_number":1},"geometry":{"type":"Point","coordinates":[-8.614855,41.162353]}},{"type":"Feature","properties":{"id":20,"year":"19","month":"12","normalized_date":0.5546875,"type":1,"ts":0.55,"freg":2,"weight":0.0,"endereco":"Rua Rua Bonfim 199  ","entradas_repetidas":1,"host_listings_number":1},"geometry":{"type":"Point","coordinates":[-8.596524,41.149557]}},{"type":"Feature","properties":{"id":21,"year":"19","month":"12","normalized_date":0.5546875,"type":1,"ts":0.54,"freg":1,"weight":0.0,"endereco":"Rua Rua Santa Catarina 652 2 DT\u00ba","entradas_repetidas":1,"host_listings_number":1},"geometry":{"type":"Point","coordinates":[-8.604955,41.151869]}},{"type":"Feature","properties":{"id":22,"year":"20","month":"01","normalized_date":0.5625,"type":2,"ts":0.55,"freg":4,"weight":0.0,"endereco":"Rua Rua Pedro Teixeira 16  ","entradas_repetidas":1,"host_listings_number":1},"geometry":{"type":"Point","coordinates":[-8.592372,41.169376]}},{"type":"Feature","properties":{"id":23,"year":"19","month":"12","normalized_date":0.5546875,"type":1,"ts":0.54,"freg":1,"weight":0.0,"endereco":"Pra\u00e7a Pra\u00e7a Rep\u00fablica 184 RC TS","entradas_repetidas":1,"host_listings_number":1},"geometry":{"type":"Point","coordinates":[-8.611944,41.154299]}},{"type":"Feature","properties":{"id":24,"year":"19","month":"12","normalized_date":0.5546875,"type":1,"ts":0.54,"freg":1,"weight":0.0,"endereco":"Rua Rua Alexandre Herculano 73 3 DIREITO","entradas_repetidas":1,"host_listings_number":1},"geometry":{"type":"Point","coordinates":[-8.60283,41.143271]}},{"type":"Feature","properties":{"id":25,"year":"19","month":"12","normalized_date":0.5546875,"type":1,"ts":0.54,"freg":4,"weight":0.0,"endereco":"Rua Rua Cunha 379 1 Direito","entradas_repetidas":1,"host_listings_number":1},"geometry":{"type":"Point","coordinates":[-8.603065,41.167519]}},{"type":"Feature","properties":{"id":26,"year":"20","month":"01","normalized_date":0.5625,"type":5,"ts":0.55,"freg":3,"weight":0.0,"endereco":"Rua Rua Restaura\u00e7\u00e3o 6 1\u00ba ","entradas_repetidas":1,"host_listings_number":1},"geometry":{"type":"Point","coordinates":[-8.630968,41.146341]}},{"type":"Feature","properties":{"id":27,"year":"19","month":"12","normalized_date":0.5546875,"type":3,"ts":0.55,"freg":4,"weight":0.0,"endereco":"Avenida Avenida Combatentes da Grande Guerra 610 3\u00ba Esq","entradas_repetidas":1,"host_listings_number":1},"geometry":{"type":"Point","coordinates":[-8.598008,41.165497]}},{"type":"Feature","properties":{"id":28,"year":"19","month":"12","normalized_date":0.5546875,"type":1,"ts":0.54,"freg":1,"weight":0.0,"endereco":"Rua Rua Capit\u00e3o Pombeiro 47 1\u00ba dto","entradas_repetidas":1,"host_listings_number":1},"geometry":{"type":"Point","coordinates":[-8.611443,41.16493]}},{"type":"Feature","properties":{"id":29,"year":"20","month":"01","normalized_date":0.5625,"type":1,"ts":0.55,"freg":6,"weight":0.0,"endereco":"Rua Rua Sociedade Protectora dos Animais 162 2\u00ba E F","entradas_repetidas":1,"host_listings_number":1},"geometry":{"type":"Point","coordinates":[-8.585795,41.160986]}},{"type":"Feature","properties":{"id":30,"year":"20","month":"01","normalized_date":0.5625,"type":3,"ts":0.55,"freg":2,"weight":0.0,"endereco":"Travessa Travessa S\u00e3o V\u00edtor 13  ","entradas_repetidas":1,"host_listings_number":1},"geometry":{"type":"Point","coordinates":[-8.598297,41.142678]}},{"type":"Feature","properties":{"id":31,"year":"20","month":"01","normalized_date":0.5625,"type":3,"ts":0.55,"freg":2,"weight":0.0,"endereco":"Cal\u00e7ada Cal\u00e7ada P\u00f3voa 69 1 esq","entradas_repetidas":1,"host_listings_number":1},"geometry":{"type":"Point","coordinates":[-8.597169,41.156977]}},{"type":"Feature","properties":{"id":32,"year":"20","month":"04","normalized_date":0.5859375,"type":1,"ts":0.57,"freg":1,"weight":0.0,"endereco":"Travessa Travessa Figueiroa 34 1 ","entradas_repetidas":1,"host_listings_number":1},"geometry":{"type":"Point","coordinates":[-8.618574,41.155547]}},{"type":"Feature","properties":{"id":33,"year":"20","month":"01","normalized_date":0.5625,"type":1,"ts":0.55,"freg":1,"weight":0.0,"endereco":"Rua Rua Restaura\u00e7\u00e3o 364 4 ","entradas_repetidas":1,"host_listings_number":1},"geometry":{"type":"Point","coordinates":[-8.622048,41.145742]}},{"type":"Feature","properties":{"id":34,"year":"19","month":"01","normalized_date":0.46875,"type":1,"ts":0.46,"freg":1,"weight":0.0,"endereco":"Rua Rua Duque Loul\u00e9 246 2.4 ","entradas_repetidas":1,"host_listings_number":1},"geometry":{"type":"Point","coordinates":[-8.604415,41.145058]}},{"type":"Feature","properties":{"id":35,"year":"19","month":"08","normalized_date":0.5234375,"type":3,"ts":0.51,"freg":1,"weight":0.0,"endereco":"Rua Rua \u00c1lvares Cabral 134  ","entradas_repetidas":1,"host_listings_number":1},"geometry":{"type":"Point","coordinates":[-8.617304,41.154893]}},{"type":"Feature","properties":{"id":36,"year":"20","month":"06","normalized_date":0.6015625,"type":3,"ts":0.58,"freg":1,"weight":0.0,"endereco":"Rua Rua Faria Guimar\u00e3es 502 4 ","entradas_repetidas":1,"host_listings_number":1},"geometry":{"type":"Point","coordinates":[-8.607078,41.161618]}},{"type":"Feature","properties":{"id":37,"year":"20","month":"06","normalized_date":0.6015625,"type":2,"ts":0.59,"freg":5,"weight":0.0,"endereco":"Rua Rua Miguel Torga 49  ","entradas_repetidas":1,"host_listings_number":1},"geometry":{"type":"Point","coordinates":[-8.668589,41.164663]}},{"type":"Feature","properties":{"id":38,"year":"21","month":"12","normalized_date":0.7421875,"type":1,"ts":0.72,"freg":1,"weight":0.0,"endereco":"Rua Rua Doutor Sousa Viterbo 81 2\u00ba Tras.","entradas_repetidas":1,"host_listings_number":1},"geometry":{"type":"Point","coordinates":[-8.614578,41.142418]}},{"type":"Feature","properties":{"id":39,"year":"20","month":"10","normalized_date":0.6328125,"type":1,"ts":0.62,"freg":1,"weight":0.0,"endereco":"Campo Campo M\u00e1rtires da P\u00e1tria 48-A 3\u00ba traseiras","entradas_repetidas":1,"host_listings_number":1},"geometry":{"type":"Point","coordinates":[-8.616625,41.146409]}},{"type":"Feature","properties":{"id":40,"year":"20","month":"11","normalized_date":0.640625,"type":1,"ts":0.62,"freg":4,"weight":0.0,"endereco":"Rua Rua Doutor Joaquim Pires de Lima 241 R/C ","entradas_repetidas":1,"host_listings_number":1},"geometry":{"type":"Point","coordinates":[-8.59686,41.16807]}},{"type":"Feature","properties":{"id":41,"year":"20","month":"10","normalized_date":0.6328125,"type":3,"ts":0.62,"freg":3,"weight":0.0,"endereco":"Rua Rua Guerra Junqueiro 57  ","entradas_repetidas":1,"host_listings_number":1},"geometry":{"type":"Point","coordinates":[-8.6387,41.15373]}},{"type":"Feature","properties":{"id":42,"year":"20","month":"12","normalized_date":0.6484375,"type":1,"ts":0.63,"freg":1,"weight":0.0,"endereco":"Rua Rua Duque Loul\u00e9 246 3 3.7","entradas_repetidas":1,"host_listings_number":1},"geometry":{"type":"Point","coordinates":[-8.604416,41.145057]}},{"type":"Feature","properties":{"id":43,"year":"20","month":"11","normalized_date":0.640625,"type":1,"ts":0.62,"freg":1,"weight":0.0,"endereco":"Rua Rua Antero de Quental 441 2 ","entradas_repetidas":1,"host_listings_number":1},"geometry":{"type":"Point","coordinates":[-8.61139,41.16207]}},{"type":"Feature","properties":{"id":44,"year":"20","month":"11","normalized_date":0.640625,"type":3,"ts":0.63,"freg":1,"weight":0.0,"endereco":"Rua Rua Mouzinho da Silveira 74/80  ","entradas_repetidas":1,"host_listings_number":1},"geometry":{"type":"Point","coordinates":[-8.614327,41.142135]}},{"type":"Feature","properties":{"id":45,"year":"21","month":"01","normalized_date":0.65625,"type":1,"ts":0.64,"freg":1,"weight":0.0,"endereco":"Rua Rua Mouzinho da Silveira 322 3\u00ba AP. K32","entradas_repetidas":1,"host_listings_number":1},"geometry":{"type":"Point","coordinates":[-8.611354,41.144749]}},{"type":"Feature","properties":{"id":46,"year":"20","month":"11","normalized_date":0.640625,"type":1,"ts":0.62,"freg":1,"weight":0.0,"endereco":"Rua Rua Oliveiras 49 1\u00ba Esq","entradas_repetidas":1,"host_listings_number":1},"geometry":{"type":"Point","coordinates":[-8.615008,41.149235]}},{"type":"Feature","properties":{"id":47,"year":"20","month":"10","normalized_date":0.6328125,"type":1,"ts":0.61,"freg":3,"weight":0.0,"endereco":"Rua Rua Bom Sucesso 82 3 esquerdo","entradas_repetidas":1,"host_listings_number":1},"geometry":{"type":"Point","coordinates":[-8.62864,41.15229]}},{"type":"Feature","properties":{"id":48,"year":"22","month":"04","normalized_date":0.7734375,"type":3,"ts":0.75,"freg":1,"weight":0.0,"endereco":"Rua Rua Nossa Senhora F\u00e1tima 314  ","entradas_repetidas":1,"host_listings_number":1},"geometry":{"type":"Point","coordinates":[-8.62586,41.15949]}},{"type":"Feature","properties":{"id":49,"year":"20","month":"01","normalized_date":0.5625,"type":1,"ts":0.55,"freg":1,"weight":0.0,"endereco":"Rua Rua Cedofeita 187 3\u00ba Traseiras","entradas_repetidas":1,"host_listings_number":1},"geometry":{"type":"Point","coordinates":[-8.617156,41.15076]}},{"type":"Feature","properties":{"id":50,"year":"23","month":"08","normalized_date":0.8984375,"type":1,"ts":0.87,"freg":1,"weight":0.0,"endereco":"Rua Rua Brito Capelo 57-61 1\u00ba Traseiras","entradas_repetidas":1,"host_listings_number":1},"geometry":{"type":"Point","coordinates":[-8.61908,41.16219]}},{"type":"Feature","properties":{"id":51,"year":"20","month":"11","normalized_date":0.640625,"type":1,"ts":0.63,"freg":1,"weight":0.0,"endereco":"Rua Rua S\u00e3o Jo\u00e3o 98 2 tras","entradas_repetidas":1,"host_listings_number":1},"geometry":{"type":"Point","coordinates":[-8.6138,41.14224]}},{"type":"Feature","properties":{"id":52,"year":"20","month":"11","normalized_date":0.640625,"type":2,"ts":0.62,"freg":5,"weight":0.0,"endereco":"Rua Rua Passeio Alegre 452  ","entradas_repetidas":1,"host_listings_number":1},"geometry":{"type":"Point","coordinates":[-8.66653,41.14762]}},{"type":"Feature","properties":{"id":53,"year":"20","month":"09","normalized_date":0.625,"type":1,"ts":0.61,"freg":1,"weight":0.0,"endereco":"Rua Rua D. Jo\u00e3o IV 177 4\u00ba dto frt ","entradas_repetidas":1,"host_listings_number":1},"geometry":{"type":"Point","coordinates":[-8.60215,41.14803]}},{"type":"Feature","properties":{"id":54,"year":"20","month":"10","normalized_date":0.6328125,"type":3,"ts":0.61,"freg":1,"weight":0.0,"endereco":"Rua Rua Nove de Julho 130 1\u00ba Esq","entradas_repetidas":1,"host_listings_number":1},"geometry":{"type":"Point","coordinates":[-8.62363,41.16279]}},{"type":"Feature","properties":{"id":55,"year":"15","month":"06","normalized_date":0.1328125,"type":1,"ts":0.14,"freg":1,"weight":0.0,"endereco":"Rua Restaura\u00e7\u00e3o 463 2\u00ba ","entradas_repetidas":1,"host_listings_number":1},"geometry":{"type":"Point","coordinates":[-8.6206,41.14607]}},{"type":"Feature","properties":{"id":56,"year":"20","month":"07","normalized_date":0.609375,"type":1,"ts":0.59,"freg":2,"weight":0.0,"endereco":"Rua Rua Santos Pousada 272 B 10 2","entradas_repetidas":1,"host_listings_number":1},"geometry":{"type":"Point","coordinates":[-8.5998,41.1511]}},{"type":"Feature","properties":{"id":57,"year":"20","month":"06","normalized_date":0.6015625,"type":2,"ts":0.59,"freg":1,"weight":0.0,"endereco":"Rua Rua Antero de Quental 241  ","entradas_repetidas":1,"host_listings_number":1},"geometry":{"type":"Point","coordinates":[-8.61177,41.16031]}},{"type":"Feature","properties":{"id":58,"year":"20","month":"06","normalized_date":0.6015625,"type":2,"ts":0.59,"freg":1,"weight":0.0,"endereco":"Rua Rua Caldeireiros 87 e 89  ","entradas_repetidas":1,"host_listings_number":1},"geometry":{"type":"Point","coordinates":[-8.61281,41.14533]}},{"type":"Feature","properties":{"id":59,"year":"20","month":"07","normalized_date":0.609375,"type":2,"ts":0.6,"freg":1,"weight":0.0,"endereco":"Rua Rua 5 3  ","entradas_repetidas":1,"host_listings_number":1},"geometry":{"type":"Point","coordinates":[-8.603604,41.144311]}},{"type":"Feature","properties":{"id":60,"year":"20","month":"07","normalized_date":0.609375,"type":3,"ts":0.59,"freg":6,"weight":0.0,"endereco":"Rua Rua Lameira de Baixo 359  ","entradas_repetidas":1,"host_listings_number":1},"geometry":{"type":"Point","coordinates":[-8.58352,41.15802]}},{"type":"Feature","properties":{"id":61,"year":"20","month":"07","normalized_date":0.609375,"type":2,"ts":0.59,"freg":6,"weight":0.0,"endereco":"Rua Rua Justino Teixeira, 137 8  ","entradas_repetidas":1,"host_listings_number":1},"geometry":{"type":"Point","coordinates":[-8.58648,41.15027]}},{"type":"Feature","properties":{"id":62,"year":"20","month":"07","normalized_date":0.609375,"type":1,"ts":0.6,"freg":1,"weight":0.0,"endereco":"Travessa Travessa Liceiras   ","entradas_repetidas":1,"host_listings_number":1},"geometry":{"type":"Point","coordinates":[-8.609508,41.150419]}},{"type":"Feature","properties":{"id":63,"year":"20","month":"07","normalized_date":0.609375,"type":1,"ts":0.6,"freg":2,"weight":0.0,"endereco":"Avenida Avenida Fern\u00e3o de Magalh\u00e3es 646 1\u00ba F","entradas_repetidas":1,"host_listings_number":1},"geometry":{"type":"Point","coordinates":[-8.59501,41.15548]}},{"type":"Feature","properties":{"id":64,"year":"82","month":"07","normalized_date":0,"type":3,"ts":0,"freg":6,"weight":0.0,"endereco":"Rua Justino Teixeira 47  ","entradas_repetidas":1,"host_listings_number":1},"geometry":{"type":"Point","coordinates":[-8.58645,41.14945]}},{"type":"Feature","properties":{"id":65,"year":"20","month":"08","normalized_date":0.6171875,"type":2,"ts":0.6,"freg":5,"weight":0.0,"endereco":"Esplanada Esplanada Castelo 17  ","entradas_repetidas":1,"host_listings_number":1},"geometry":{"type":"Point","coordinates":[-8.67316,41.14943]}},{"type":"Feature","properties":{"id":66,"year":"17","month":"06","normalized_date":0.3203125,"type":4,"ts":0.32,"freg":1,"weight":0.0,"endereco":"Rua Rua S\u00e3o Jo\u00e3o 40  ","entradas_repetidas":1,"host_listings_number":1},"geometry":{"type":"Point","coordinates":[-8.61331,41.14135]}},{"type":"Feature","properties":{"id":67,"year":"20","month":"08","normalized_date":0.6171875,"type":2,"ts":0.6,"freg":5,"weight":0.0,"endereco":"Rua Rua Marechal Saldanha 948  ","entradas_repetidas":1,"host_listings_number":1},"geometry":{"type":"Point","coordinates":[-8.68296,41.1625]}},{"type":"Feature","properties":{"id":68,"year":"20","month":"08","normalized_date":0.6171875,"type":1,"ts":0.6,"freg":2,"weight":0.0,"endereco":"Rua Rua Ant\u00f3nio Granjo 180 r/c ts esq","entradas_repetidas":1,"host_listings_number":1},"geometry":{"type":"Point","coordinates":[-8.5954,41.14775]}},{"type":"Feature","properties":{"id":69,"year":"20","month":"08","normalized_date":0.6171875,"type":2,"ts":0.61,"freg":2,"weight":0.0,"endereco":"Rua Rua Anselmo Braamcamp 395  ","entradas_repetidas":1,"host_listings_number":1},"geometry":{"type":"Point","coordinates":[-8.60063,41.15463]}},{"type":"Feature","properties":{"id":70,"year":"20","month":"08","normalized_date":0.6171875,"type":1,"ts":0.61,"freg":1,"weight":0.0,"endereco":"Rua Rua M\u00e1rtires da Liberdade 234 2 tras","entradas_repetidas":1,"host_listings_number":1},"geometry":{"type":"Point","coordinates":[-8.6136,41.15253]}},{"type":"Feature","properties":{"id":71,"year":"19","month":"12","normalized_date":0.5546875,"type":1,"ts":0.54,"freg":1,"weight":0.0,"endereco":"Rua Rua Bonjardim 838 2\u00ba ","entradas_repetidas":1,"host_listings_number":1},"geometry":{"type":"Point","coordinates":[-8.607623,41.154917]}},{"type":"Feature","properties":{"id":72,"year":"19","month":"11","normalized_date":0.546875,"type":1,"ts":0.54,"freg":1,"weight":0.0,"endereco":"Rua Rua Jo\u00e3o das Regras 150 2\u00ba esq/Tras","entradas_repetidas":1,"host_listings_number":1},"geometry":{"type":"Point","coordinates":[-8.609481,41.155206]}},{"type":"Feature","properties":{"id":73,"year":"19","month":"11","normalized_date":0.546875,"type":1,"ts":0.54,"freg":1,"weight":0.0,"endereco":"Rua Rua Doutor Alves da Veiga 205 RC DF","entradas_repetidas":1,"host_listings_number":1},"geometry":{"type":"Point","coordinates":[-8.603612,41.150574]}},{"type":"Feature","properties":{"id":74,"year":"19","month":"12","normalized_date":0.5546875,"type":1,"ts":0.54,"freg":1,"weight":0.0,"endereco":"Rua Rua Dom Manuel II 70 4\u00ba C","entradas_repetidas":1,"host_listings_number":1},"geometry":{"type":"Point","coordinates":[-8.622102,41.147648]}},{"type":"Feature","properties":{"id":75,"year":"19","month":"09","normalized_date":0.53125,"type":1,"ts":0.52,"freg":1,"weight":0.0,"endereco":"Rua Rua Corpo da Guarda 60 2\u00ba ","entradas_repetidas":1,"host_listings_number":1},"geometry":{"type":"Point","coordinates":[-8.61102,41.145048]}},{"type":"Feature","properties":{"id":76,"year":"19","month":"07","normalized_date":0.515625,"type":1,"ts":0.51,"freg":1,"weight":0.0,"endereco":"Rua Rua Santa Catarina 818 3\u00ba Traseiras","entradas_repetidas":1,"host_listings_number":1},"geometry":{"type":"Point","coordinates":[-8.604714,41.153389]}},{"type":"Feature","properties":{"id":77,"year":"19","month":"09","normalized_date":0.53125,"type":4,"ts":0.52,"freg":1,"weight":0.0,"endereco":"Rua Rua Santa Catarina 313  ","entradas_repetidas":1,"host_listings_number":1},"geometry":{"type":"Point","coordinates":[-8.606114,41.148972]}},{"type":"Feature","properties":{"id":78,"year":"19","month":"07","normalized_date":0.515625,"type":4,"ts":0.5,"freg":1,"weight":0.0,"endereco":"Rua Rua Santa Catarina 488  ","entradas_repetidas":1,"host_listings_number":1},"geometry":{"type":"Point","coordinates":[-8.605486,41.150446]}},{"type":"Feature","properties":{"id":79,"year":"19","month":"08","normalized_date":0.5234375,"type":1,"ts":0.51,"freg":2,"weight":0.0,"endereco":"Rua Rua Costa Cabral 98  ","entradas_repetidas":1,"host_listings_number":1},"geometry":{"type":"Point","coordinates":[-8.603063,41.162649]}},{"type":"Feature","properties":{"id":80,"year":"19","month":"08","normalized_date":0.5234375,"type":2,"ts":0.51,"freg":1,"weight":0.0,"endereco":"Travessa Travessa Antero de Quental 33 Casa 4 ","entradas_repetidas":1,"host_listings_number":1},"geometry":{"type":"Point","coordinates":[-8.607436,41.159975]}},{"type":"Feature","properties":{"id":81,"year":"19","month":"08","normalized_date":0.5234375,"type":1,"ts":0.51,"freg":1,"weight":0.0,"endereco":"Rua Rua Cam\u00f5es 327 1 3","entradas_repetidas":1,"host_listings_number":1},"geometry":{"type":"Point","coordinates":[-8.610046,41.154843]}},{"type":"Feature","properties":{"id":82,"year":"20","month":"06","normalized_date":0.6015625,"type":1,"ts":0.58,"freg":1,"weight":0.0,"endereco":"Rua Rua Tr\u00e1s 173 1\u00ba ","entradas_repetidas":1,"host_listings_number":1},"geometry":{"type":"Point","coordinates":[-8.614582,41.14532]}},{"type":"Feature","properties":{"id":83,"year":"19","month":"08","normalized_date":0.5234375,"type":1,"ts":0.51,"freg":2,"weight":0.0,"endereco":"Travessa Travessa Campo de Paiva 45 1 ","entradas_repetidas":1,"host_listings_number":1},"geometry":{"type":"Point","coordinates":[-8.600106,41.158528]}},{"type":"Feature","properties":{"id":84,"year":"19","month":"09","normalized_date":0.53125,"type":5,"ts":0.52,"freg":4,"weight":0.0,"endereco":"Rua Rua Nove de Abril 1208  ","entradas_repetidas":1,"host_listings_number":1},"geometry":{"type":"Point","coordinates":[-8.613763,41.171514]}},{"type":"Feature","properties":{"id":85,"year":"19","month":"11","normalized_date":0.546875,"type":4,"ts":0.53,"freg":1,"weight":0.0,"endereco":"Rua Rua C\u00e2ndido dos Reis 91  ","entradas_repetidas":1,"host_listings_number":1},"geometry":{"type":"Point","coordinates":[-8.613935,41.147114]}},{"type":"Feature","properties":{"id":86,"year":"19","month":"08","normalized_date":0.5234375,"type":3,"ts":0.51,"freg":2,"weight":0.0,"endereco":"Rua Rua Duque Saldanha 532  ","entradas_repetidas":1,"host_listings_number":1},"geometry":{"type":"Point","coordinates":[-8.597458,41.14639]}},{"type":"Feature","properties":{"id":87,"year":"19","month":"08","normalized_date":0.5234375,"type":4,"ts":0.51,"freg":3,"weight":0.0,"endereco":"Rua Rua Ant\u00f3nio Jos\u00e9 da Costa 31  ","entradas_repetidas":1,"host_listings_number":1},"geometry":{"type":"Point","coordinates":[-8.637293,41.158352]}},{"type":"Feature","properties":{"id":88,"year":"19","month":"08","normalized_date":0.5234375,"type":1,"ts":0.51,"freg":4,"weight":0.0,"endereco":"Praceta Praceta Francisco Borges 31 7 dir","entradas_repetidas":1,"host_listings_number":1},"geometry":{"type":"Point","coordinates":[-8.588522,41.173451]}},{"type":"Feature","properties":{"id":89,"year":"19","month":"08","normalized_date":0.5234375,"type":1,"ts":0.51,"freg":2,"weight":0.0,"endereco":"Rua Rua Oliveirinhas 49 R/c ","entradas_repetidas":1,"host_listings_number":1},"geometry":{"type":"Point","coordinates":[-8.601406,41.148234]}},{"type":"Feature","properties":{"id":90,"year":"19","month":"07","normalized_date":0.515625,"type":1,"ts":0.51,"freg":1,"weight":0.0,"endereco":"Rua Rua Santa Catarina 951 2\u00ba dt\u00ba/tras","entradas_repetidas":1,"host_listings_number":1},"geometry":{"type":"Point","coordinates":[-8.604736,41.15458]}},{"type":"Feature","properties":{"id":91,"year":"19","month":"07","normalized_date":0.515625,"type":1,"ts":0.51,"freg":1,"weight":0.0,"endereco":"Rua Rua Ferraz 12 1 Dt","entradas_repetidas":1,"host_listings_number":1},"geometry":{"type":"Point","coordinates":[-8.613767,41.144233]}},{"type":"Feature","properties":{"id":92,"year":"19","month":"07","normalized_date":0.515625,"type":1,"ts":0.51,"freg":1,"weight":0.0,"endereco":"Rua Rua Boavista 181 e 183 R/C Traseiras","entradas_repetidas":1,"host_listings_number":1},"geometry":{"type":"Point","coordinates":[-8.615506,41.155629]}},{"type":"Feature","properties":{"id":93,"year":"19","month":"08","normalized_date":0.5234375,"type":1,"ts":0.51,"freg":5,"weight":0.0,"endereco":"Rua Rua Fonte da Luz 237 1\u00ba ","entradas_repetidas":1,"host_listings_number":1},"geometry":{"type":"Point","coordinates":[-8.676733,41.151838]}},{"type":"Feature","properties":{"id":94,"year":"19","month":"07","normalized_date":0.515625,"type":1,"ts":0.5,"freg":1,"weight":0.0,"endereco":"Rua Rua Mouzinho da Silveira 200 3\u00ba ","entradas_repetidas":1,"host_listings_number":1},"geometry":{"type":"Point","coordinates":[-8.613032,41.143565]}},{"type":"Feature","properties":{"id":95,"year":"19","month":"08","normalized_date":0.5234375,"type":2,"ts":0.51,"freg":1,"weight":0.0,"endereco":"Rua Rua S\u00e3o Br\u00e1s 178 r/c ","entradas_repetidas":1,"host_listings_number":1},"geometry":{"type":"Point","coordinates":[-8.610729,41.158645]}},{"type":"Feature","properties":{"id":96,"year":"21","month":"02","normalized_date":0.6640625,"type":1,"ts":0.65,"freg":1,"weight":0.0,"endereco":"Rua Formosa 61 2\u00ba E","entradas_repetidas":1,"host_listings_number":1},"geometry":{"type":"Point","coordinates":[-8.603118,41.147412]}},{"type":"Feature","properties":{"id":97,"year":"19","month":"08","normalized_date":0.5234375,"type":2,"ts":0.51,"freg":3,"weight":0.0,"endereco":"Rua Rua Arr\u00e1bida 240  ","entradas_repetidas":1,"host_listings_number":1},"geometry":{"type":"Point","coordinates":[-8.644913,41.150345]}},{"type":"Feature","properties":{"id":98,"year":"19","month":"07","normalized_date":0.515625,"type":1,"ts":0.51,"freg":1,"weight":0.0,"endereco":"Rua Rua Fontainhas 141 2 B","entradas_repetidas":1,"host_listings_number":1},"geometry":{"type":"Point","coordinates":[-8.602681,41.144289]}},{"type":"Feature","properties":{"id":99,"year":"19","month":"08","normalized_date":0.5234375,"type":1,"ts":0.51,"freg":1,"weight":0.0,"endereco":"Rua Rua Belomonte 88 2 ","entradas_repetidas":1,"host_listings_number":1},"geometry":{"type":"Point","coordinates":[-8.616537,41.142586]}},{"type":"Feature","properties":{"id":100,"year":"19","month":"08","normalized_date":0.5234375,"type":1,"ts":0.51,"freg":1,"weight":0.0,"endereco":"Rua Rua Belomonte 86 RC / 1 ","entradas_repetidas":1,"host_listings_number":1},"geometry":{"type":"Point","coordinates":[-8.616518,41.142585]}},{"type":"Feature","properties":{"id":101,"year":"19","month":"07","normalized_date":0.515625,"type":1,"ts":0.51,"freg":1,"weight":0.0,"endereco":"Rua Rua Caldeireiros 132 3 ","entradas_repetidas":1,"host_listings_number":1},"geometry":{"type":"Point","coordinates":[-8.613639,41.14524]}},{"type":"Feature","properties":{"id":102,"year":"19","month":"08","normalized_date":0.5234375,"type":1,"ts":0.51,"freg":1,"weight":0.0,"endereco":"Rua Rua Bonjardim 948 1\u00ba Esq","entradas_repetidas":1,"host_listings_number":1},"geometry":{"type":"Point","coordinates":[-8.607685,41.156067]}},{"type":"Feature","properties":{"id":103,"year":"20","month":"07","normalized_date":0.609375,"type":1,"ts":0.6,"freg":1,"weight":0.0,"endereco":"Rua Rua Almada 529-533 2 ESQUERDO","entradas_repetidas":1,"host_listings_number":1},"geometry":{"type":"Point","coordinates":[-8.612097,41.151915]}},{"type":"Feature","properties":{"id":104,"year":"19","month":"07","normalized_date":0.515625,"type":3,"ts":0.51,"freg":1,"weight":0.0,"endereco":"Rua Rua Santa Catarina 331 2\u00ba - 3\u00ba ","entradas_repetidas":1,"host_listings_number":1},"geometry":{"type":"Point","coordinates":[-8.606073,41.14916]}},{"type":"Feature","properties":{"id":105,"year":"19","month":"07","normalized_date":0.515625,"type":1,"ts":0.51,"freg":1,"weight":0.0,"endereco":"Largo Largo Ramadinha 99 2\u00ba frente","entradas_repetidas":1,"host_listings_number":1},"geometry":{"type":"Point","coordinates":[-8.603047,41.146253]}},{"type":"Feature","properties":{"id":106,"year":"19","month":"07","normalized_date":0.515625,"type":1,"ts":0.51,"freg":1,"weight":0.0,"endereco":"Rua Rua Souto 23 2 ","entradas_repetidas":1,"host_listings_number":1},"geometry":{"type":"Point","coordinates":[-8.612169,41.143702]}},{"type":"Feature","properties":{"id":107,"year":"19","month":"08","normalized_date":0.5234375,"type":1,"ts":0.51,"freg":1,"weight":0.0,"endereco":"Rua Rua Entreparedes 62 4\u00ba ","entradas_repetidas":1,"host_listings_number":1},"geometry":{"type":"Point","coordinates":[-8.605664,41.14536]}},{"type":"Feature","properties":{"id":108,"year":"19","month":"08","normalized_date":0.5234375,"type":1,"ts":0.52,"freg":1,"weight":0.0,"endereco":"Rua Rua Cam\u00f5es 715 2 Trs","entradas_repetidas":1,"host_listings_number":1},"geometry":{"type":"Point","coordinates":[-8.609996,41.158342]}},{"type":"Feature","properties":{"id":109,"year":"21","month":"01","normalized_date":0.65625,"type":3,"ts":0.64,"freg":1,"weight":0.0,"endereco":"Rua Rua Mouzinho da Silveira 228  ","entradas_repetidas":1,"host_listings_number":1},"geometry":{"type":"Point","coordinates":[-8.61265,41.14374]}},{"type":"Feature","properties":{"id":110,"year":"19","month":"08","normalized_date":0.5234375,"type":1,"ts":0.51,"freg":1,"weight":0.0,"endereco":"Rua Rua J\u00falio Dinis 764 8 E","entradas_repetidas":1,"host_listings_number":1},"geometry":{"type":"Point","coordinates":[-8.627269,41.155526]}},{"type":"Feature","properties":{"id":111,"year":"19","month":"10","normalized_date":0.5390625,"type":3,"ts":0.52,"freg":1,"weight":0.0,"endereco":"Rua Rua Ra\u00fal D\u00f3ria 26 R/C ","entradas_repetidas":1,"host_listings_number":1},"geometry":{"type":"Point","coordinates":[-8.607112,41.154165]}},{"type":"Feature","properties":{"id":112,"year":"19","month":"12","normalized_date":0.5546875,"type":1,"ts":0.54,"freg":1,"weight":0.0,"endereco":"Rua Rua Bolh\u00e3o 47 6.\u00ba Apart. 1","entradas_repetidas":1,"host_listings_number":1},"geometry":{"type":"Point","coordinates":[-8.607571,41.150692]}},{"type":"Feature","properties":{"id":113,"year":"19","month":"10","normalized_date":0.5390625,"type":1,"ts":0.52,"freg":5,"weight":0.0,"endereco":"Rua Rua S\u00e3o Bartolomeu 11 r/c dt\u00ba","entradas_repetidas":1,"host_listings_number":1},"geometry":{"type":"Point","coordinates":[-8.676518,41.150696]}},{"type":"Feature","properties":{"id":114,"year":"19","month":"10","normalized_date":0.5390625,"type":1,"ts":0.53,"freg":1,"weight":0.0,"endereco":"Rua Rua Pedro Hispano 860 2\u00ba esq","entradas_repetidas":1,"host_listings_number":1},"geometry":{"type":"Point","coordinates":[-8.632566,41.164021]}},{"type":"Feature","properties":{"id":115,"year":"19","month":"10","normalized_date":0.5390625,"type":2,"ts":0.53,"freg":2,"weight":0.0,"endereco":"Rua Rua S\u00e3o V\u00edtor 104 casa 26 Fra\u00e7\u00e3o B","entradas_repetidas":1,"host_listings_number":1},"geometry":{"type":"Point","coordinates":[-8.598847,41.143551]}},{"type":"Feature","properties":{"id":116,"year":"19","month":"10","normalized_date":0.5390625,"type":5,"ts":0.53,"freg":2,"weight":0.0,"endereco":"Rua Rua Gomes Freire   ","entradas_repetidas":1,"host_listings_number":1},"geometry":{"type":"Point","coordinates":[-8.599763,41.14256]}},{"type":"Feature","properties":{"id":117,"year":"19","month":"10","normalized_date":0.5390625,"type":1,"ts":0.53,"freg":1,"weight":0.0,"endereco":"Rua Rua Saudade 59 2 Sala 27","entradas_repetidas":1,"host_listings_number":1},"geometry":{"type":"Point","coordinates":[-8.626391,41.15521]}},{"type":"Feature","properties":{"id":118,"year":"19","month":"10","normalized_date":0.5390625,"type":1,"ts":0.53,"freg":2,"weight":0.0,"endereco":"Rua Rua Santa Catarina 1140 4\u00ba Dto","entradas_repetidas":1,"host_listings_number":1},"geometry":{"type":"Point","coordinates":[-8.604602,41.156225]}},{"type":"Feature","properties":{"id":119,"year":"19","month":"11","normalized_date":0.546875,"type":1,"ts":0.53,"freg":2,"weight":0.0,"endereco":"Rua Rua Bonfim 189e RC TR","entradas_repetidas":1,"host_listings_number":1},"geometry":{"type":"Point","coordinates":[-8.596664,41.149467]}},{"type":"Feature","properties":{"id":120,"year":"19","month":"11","normalized_date":0.546875,"type":1,"ts":0.53,"freg":3,"weight":0.0,"endereco":"Rua Rua Calouste Gulbenkian 219 1 H1","entradas_repetidas":1,"host_listings_number":1},"geometry":{"type":"Point","coordinates":[-8.62699,41.150165]}},{"type":"Feature","properties":{"id":121,"year":"19","month":"08","normalized_date":0.5234375,"type":3,"ts":0.51,"freg":2,"weight":0.0,"endereco":"Rua Rua Alegria 919  ","entradas_repetidas":1,"host_listings_number":1},"geometry":{"type":"Point","coordinates":[-8.600934,41.159845]}},{"type":"Feature","properties":{"id":122,"year":"19","month":"11","normalized_date":0.546875,"type":5,"ts":0.54,"freg":1,"weight":0.0,"endereco":"Rua Rua Bar\u00e3o Forrester 873  ","entradas_repetidas":1,"host_listings_number":1},"geometry":{"type":"Point","coordinates":[-8.620783,41.159655]}},{"type":"Feature","properties":{"id":123,"year":"19","month":"10","normalized_date":0.5390625,"type":4,"ts":0.53,"freg":1,"weight":0.0,"endereco":"Rua Rua Pedro Hispano 1170/1172  ","entradas_repetidas":1,"host_listings_number":1},"geometry":{"type":"Point","coordinates":[-8.629478,41.165555]}},{"type":"Feature","properties":{"id":124,"year":"19","month":"11","normalized_date":0.546875,"type":1,"ts":0.53,"freg":1,"weight":0.0,"endereco":"Rua Rua Monte Cativo 409 2\u00ba ","entradas_repetidas":1,"host_listings_number":1},"geometry":{"type":"Point","coordinates":[-8.616485,41.162663]}},{"type":"Feature","properties":{"id":125,"year":"19","month":"12","normalized_date":0.5546875,"type":2,"ts":0.54,"freg":3,"weight":0.0,"endereco":"Rua Rua Moinhos 239  ","entradas_repetidas":1,"host_listings_number":1},"geometry":{"type":"Point","coordinates":[-8.630756,41.148707]}},{"type":"Feature","properties":{"id":126,"year":"19","month":"11","normalized_date":0.546875,"type":1,"ts":0.53,"freg":1,"weight":0.0,"endereco":"Rua Rua Alegria 159 2 Frente dt","entradas_repetidas":1,"host_listings_number":1},"geometry":{"type":"Point","coordinates":[-8.604086,41.148915]}},{"type":"Feature","properties":{"id":127,"year":"19","month":"10","normalized_date":0.5390625,"type":1,"ts":0.52,"freg":1,"weight":0.0,"endereco":"Travessa Travessa Lapa 1 r/c 1 ","entradas_repetidas":1,"host_listings_number":1},"geometry":{"type":"Point","coordinates":[-8.611944,41.158178]}},{"type":"Feature","properties":{"id":128,"year":"19","month":"10","normalized_date":0.5390625,"type":1,"ts":0.53,"freg":1,"weight":0.0,"endereco":"Rua Rua Moreira de Assun\u00e7\u00e3o 54 2\u00ba Frente","entradas_repetidas":1,"host_listings_number":1},"geometry":{"type":"Point","coordinates":[-8.607829,41.157984]}},{"type":"Feature","properties":{"id":129,"year":"19","month":"10","normalized_date":0.5390625,"type":1,"ts":0.52,"freg":1,"weight":0.0,"endereco":"Rua Rua Miguel Bombarda 429 3\u00ba direito","entradas_repetidas":1,"host_listings_number":1},"geometry":{"type":"Point","coordinates":[-8.622078,41.149444]}},{"type":"Feature","properties":{"id":130,"year":"19","month":"09","normalized_date":0.53125,"type":2,"ts":0.52,"freg":2,"weight":0.0,"endereco":"Rua Rua Anselmo Braamcamp 705  ","entradas_repetidas":1,"host_listings_number":1},"geometry":{"type":"Point","coordinates":[-8.600015,41.157384]}},{"type":"Feature","properties":{"id":131,"year":"19","month":"09","normalized_date":0.53125,"type":5,"ts":0.52,"freg":5,"weight":0.0,"endereco":"Avenida Avenida Montevideu 764  ","entradas_repetidas":1,"host_listings_number":1},"geometry":{"type":"Point","coordinates":[-8.687259,41.165656]}},{"type":"Feature","properties":{"id":132,"year":"19","month":"09","normalized_date":0.53125,"type":1,"ts":0.52,"freg":1,"weight":0.0,"endereco":"Rua Rua \u00c1lvares Cabral 436 3 Dto","entradas_repetidas":1,"host_listings_number":1},"geometry":{"type":"Point","coordinates":[-8.613767,41.154245]}},{"type":"Feature","properties":{"id":133,"year":"19","month":"08","normalized_date":0.5234375,"type":1,"ts":0.51,"freg":2,"weight":0.0,"endereco":"Rua Rua Coutinho de Azevedo CV  ","entradas_repetidas":1,"host_listings_number":1},"geometry":{"type":"Point","coordinates":[-8.595482,41.157339]}},{"type":"Feature","properties":{"id":134,"year":"87","month":"07","normalized_date":0,"type":3,"ts":0,"freg":2,"weight":0.0,"endereco":"Rua Rua Duque Saldanha 512  ","entradas_repetidas":1,"host_listings_number":1},"geometry":{"type":"Point","coordinates":[-8.597395,41.146219]}},{"type":"Feature","properties":{"id":135,"year":"19","month":"09","normalized_date":0.53125,"type":1,"ts":0.52,"freg":3,"weight":0.0,"endereco":"Rua Rua Adolfo Casais Monteiro 49 2\u00ba Esq Tras","entradas_repetidas":1,"host_listings_number":1},"geometry":{"type":"Point","coordinates":[-8.622843,41.148454]}},{"type":"Feature","properties":{"id":136,"year":"19","month":"09","normalized_date":0.53125,"type":1,"ts":0.52,"freg":1,"weight":0.0,"endereco":"Rua Rua S\u00e3o Bento da Vit\u00f3ria 8 R/C ","entradas_repetidas":1,"host_listings_number":1},"geometry":{"type":"Point","coordinates":[-8.615805,41.14347]}},{"type":"Feature","properties":{"id":137,"year":"19","month":"09","normalized_date":0.53125,"type":1,"ts":0.52,"freg":2,"weight":0.0,"endereco":"Rua Rua Bonfim 336 3.\u00ba G","entradas_repetidas":1,"host_listings_number":1},"geometry":{"type":"Point","coordinates":[-8.595095,41.150292]}},{"type":"Feature","properties":{"id":138,"year":"19","month":"10","normalized_date":0.5390625,"type":1,"ts":0.52,"freg":1,"weight":0.0,"endereco":"Rua Rua Caldeireiros 168 4\u00ba T","entradas_repetidas":1,"host_listings_number":1},"geometry":{"type":"Point","coordinates":[-8.614017,41.145133]}},{"type":"Feature","properties":{"id":139,"year":"19","month":"10","normalized_date":0.5390625,"type":3,"ts":0.53,"freg":4,"weight":0.0,"endereco":"Rua Rua Particular de Monsanto 106  ","entradas_repetidas":1,"host_listings_number":1},"geometry":{"type":"Point","coordinates":[-8.616768,41.172786]}},{"type":"Feature","properties":{"id":140,"year":"19","month":"10","normalized_date":0.5390625,"type":3,"ts":0.52,"freg":5,"weight":0.0,"endereco":"Avenida Avenida Boavista 3758  ","entradas_repetidas":1,"host_listings_number":1},"geometry":{"type":"Point","coordinates":[-8.667374,41.164416]}},{"type":"Feature","properties":{"id":141,"year":"19","month":"10","normalized_date":0.5390625,"type":3,"ts":0.52,"freg":2,"weight":0.0,"endereco":"Pra\u00e7a Pra\u00e7a Alegria 13  ","entradas_repetidas":1,"host_listings_number":1},"geometry":{"type":"Point","coordinates":[-8.60058,41.143971]}},{"type":"Feature","properties":{"id":142,"year":"20","month":"07","normalized_date":0.609375,"type":1,"ts":0.59,"freg":1,"weight":0.0,"endereco":"Rua Rua Santa Catarina 700 4.\u00ba FD P","entradas_repetidas":1,"host_listings_number":1},"geometry":{"type":"Point","coordinates":[-8.604786,41.15232]}},{"type":"Feature","properties":{"id":143,"year":"19","month":"10","normalized_date":0.5390625,"type":1,"ts":0.52,"freg":1,"weight":0.0,"endereco":"Viela Viela Anjo 6 -1 ","entradas_repetidas":1,"host_listings_number":1},"geometry":{"type":"Point","coordinates":[-8.613036,41.143247]}},{"type":"Feature","properties":{"id":144,"year":"19","month":"09","normalized_date":0.53125,"type":1,"ts":0.52,"freg":7,"weight":0.0,"endereco":"Rua Cidade de Bristol 147 1.\u00ba A","entradas_repetidas":1,"host_listings_number":1},"geometry":{"type":"Point","coordinates":[-8.633515,41.179056]}},{"type":"Feature","properties":{"id":145,"year":"19","month":"08","normalized_date":0.5234375,"type":5,"ts":0.51,"freg":6,"weight":0.0,"endereco":"Rua Rua Linhas de Elvas 154  ","entradas_repetidas":1,"host_listings_number":1},"geometry":{"type":"Point","coordinates":[-8.571463,41.168081]}},{"type":"Feature","properties":{"id":146,"year":"20","month":"12","normalized_date":0.6484375,"type":1,"ts":0.63,"freg":1,"weight":0.0,"endereco":"Rua Rua do Loureiro 140A 3\u00ba Tr\u00e1s","entradas_repetidas":1,"host_listings_number":1},"geometry":{"type":"Point","coordinates":[-8.609575,41.144446]}},{"type":"Feature","properties":{"id":147,"year":"20","month":"12","normalized_date":0.6484375,"type":3,"ts":0.64,"freg":2,"weight":0.0,"endereco":"Rua Rua Duque Saldanha 290  ","entradas_repetidas":1,"host_listings_number":1},"geometry":{"type":"Point","coordinates":[-8.59675,41.14432]}},{"type":"Feature","properties":{"id":148,"year":"21","month":"01","normalized_date":0.65625,"type":3,"ts":0.64,"freg":1,"weight":0.0,"endereco":"Rua Rua Belomonte 52  ","entradas_repetidas":1,"host_listings_number":1},"geometry":{"type":"Point","coordinates":[-8.61612,41.14271]}},{"type":"Feature","properties":{"id":149,"year":"21","month":"10","normalized_date":0.7265625,"type":3,"ts":0.71,"freg":1,"weight":0.0,"endereco":"Rua Largo Dr. Tito Fontes 135  ","entradas_repetidas":1,"host_listings_number":1},"geometry":{"type":"Point","coordinates":[-8.60837,41.153]}},{"type":"Feature","properties":{"id":150,"year":"21","month":"11","normalized_date":0.734375,"type":1,"ts":0.71,"freg":1,"weight":0.0,"endereco":"Rua Rua Mouzinho da Silveira 10 3 ","entradas_repetidas":1,"host_listings_number":1},"geometry":{"type":"Point","coordinates":[-8.614438,41.14166]}},{"type":"Feature","properties":{"id":151,"year":"21","month":"11","normalized_date":0.734375,"type":1,"ts":0.72,"freg":4,"weight":0.0,"endereco":"Rua Rua Serpa Pinto 725 2 DT","entradas_repetidas":1,"host_listings_number":1},"geometry":{"type":"Point","coordinates":[-8.62038,41.16704]}},{"type":"Feature","properties":{"id":152,"year":"21","month":"10","normalized_date":0.7265625,"type":3,"ts":0.71,"freg":7,"weight":0.0,"endereco":"Rua Rua Ramalde do Meio 162  ","entradas_repetidas":1,"host_listings_number":1},"geometry":{"type":"Point","coordinates":[-8.6407,41.17431]}},{"type":"Feature","properties":{"id":153,"year":"21","month":"10","normalized_date":0.7265625,"type":2,"ts":0.71,"freg":1,"weight":0.0,"endereco":"Rua Rua Vit\u00f3ria 125/127  ","entradas_repetidas":1,"host_listings_number":1},"geometry":{"type":"Point","coordinates":[-8.61448,41.14425]}},{"type":"Feature","properties":{"id":154,"year":"21","month":"12","normalized_date":0.7421875,"type":3,"ts":0.72,"freg":1,"weight":0.0,"endereco":"Rua Rua Ra\u00fal D\u00f3ria 48 R/C ","entradas_repetidas":1,"host_listings_number":1},"geometry":{"type":"Point","coordinates":[-8.60701,41.15426]}},{"type":"Feature","properties":{"id":155,"year":"21","month":"11","normalized_date":0.734375,"type":1,"ts":0.71,"freg":2,"weight":0.0,"endereco":"Rua Rua Duque Terceira 302 r/c esq","entradas_repetidas":1,"host_listings_number":1},"geometry":{"type":"Point","coordinates":[-8.59846,41.14671]}},{"type":"Feature","properties":{"id":156,"year":"21","month":"11","normalized_date":0.734375,"type":1,"ts":0.71,"freg":1,"weight":0.0,"endereco":"Rua Rua Flores 157 1\u00ba trs ","entradas_repetidas":1,"host_listings_number":1},"geometry":{"type":"Point","coordinates":[-8.61279,41.14447]}},{"type":"Feature","properties":{"id":157,"year":"21","month":"11","normalized_date":0.734375,"type":1,"ts":0.72,"freg":4,"weight":0.0,"endereco":"Rua Rua Costa Cabral 903 Cave Dta Tra B3","entradas_repetidas":1,"host_listings_number":1},"geometry":{"type":"Point","coordinates":[-8.59292,41.16785]}},{"type":"Feature","properties":{"id":158,"year":"21","month":"10","normalized_date":0.7265625,"type":3,"ts":0.71,"freg":1,"weight":0.0,"endereco":"Pra\u00e7a Pra\u00e7a Poveiros 102/104  ","entradas_repetidas":1,"host_listings_number":1},"geometry":{"type":"Point","coordinates":[-8.60383,41.146]}},{"type":"Feature","properties":{"id":159,"year":"21","month":"10","normalized_date":0.7265625,"type":1,"ts":0.71,"freg":1,"weight":0.0,"endereco":"Largo Largo Ramadinha 91 RC ","entradas_repetidas":1,"host_listings_number":1},"geometry":{"type":"Point","coordinates":[-8.60305,41.14639]}},{"type":"Feature","properties":{"id":160,"year":"21","month":"11","normalized_date":0.734375,"type":3,"ts":0.72,"freg":1,"weight":0.0,"endereco":"Rua Rua Cativo 78 RC ","entradas_repetidas":1,"host_listings_number":1},"geometry":{"type":"Point","coordinates":[-8.60799,41.1442]}},{"type":"Feature","properties":{"id":161,"year":"21","month":"11","normalized_date":0.734375,"type":1,"ts":0.71,"freg":1,"weight":0.0,"endereco":"Rua Rua Almada 340 2\u00ba Trs","entradas_repetidas":1,"host_listings_number":1},"geometry":{"type":"Point","coordinates":[-8.61204,41.14955]}},{"type":"Feature","properties":{"id":162,"year":"21","month":"11","normalized_date":0.734375,"type":2,"ts":0.72,"freg":1,"weight":0.0,"endereco":"Escadas Escadas Guindais 36  ","entradas_repetidas":1,"host_listings_number":1},"geometry":{"type":"Point","coordinates":[-8.60866,41.14176]}},{"type":"Feature","properties":{"id":163,"year":"21","month":"10","normalized_date":0.7265625,"type":2,"ts":0.71,"freg":1,"weight":0.0,"endereco":"Rua Rua Cimo de Vila 73 1 ","entradas_repetidas":1,"host_listings_number":1},"geometry":{"type":"Point","coordinates":[-8.60841,41.1447]}},{"type":"Feature","properties":{"id":164,"year":"21","month":"10","normalized_date":0.7265625,"type":1,"ts":0.71,"freg":1,"weight":0.0,"endereco":"Rua Rua Clemente Meneres 47 1 D Frente","entradas_repetidas":1,"host_listings_number":1},"geometry":{"type":"Point","coordinates":[-8.61957,41.14851]}},{"type":"Feature","properties":{"id":165,"year":"22","month":"01","normalized_date":0.75,"type":1,"ts":0.73,"freg":1,"weight":0.0,"endereco":"Rua Rua Bou\u00e7a 31 a 33 RC e Cave ","entradas_repetidas":1,"host_listings_number":1},"geometry":{"type":"Point","coordinates":[-8.62048,41.16147]}},{"type":"Feature","properties":{"id":166,"year":"21","month":"10","normalized_date":0.7265625,"type":3,"ts":0.71,"freg":3,"weight":0.0,"endereco":"Rua Rua Flora 19 e 21  ","entradas_repetidas":1,"host_listings_number":1},"geometry":{"type":"Point","coordinates":[-8.63099,41.14719]}},{"type":"Feature","properties":{"id":167,"year":"21","month":"10","normalized_date":0.7265625,"type":1,"ts":0.71,"freg":1,"weight":0.0,"endereco":"Rua Rua Serpa Pinto 73 5 Esquerdo","entradas_repetidas":1,"host_listings_number":1},"geometry":{"type":"Point","coordinates":[-8.62121,41.16118]}},{"type":"Feature","properties":{"id":168,"year":"21","month":"10","normalized_date":0.7265625,"type":1,"ts":0.71,"freg":1,"weight":0.0,"endereco":"Rua Rua Jo\u00e3o Pedro Ribeiro 673 2 D","entradas_repetidas":1,"host_listings_number":1},"geometry":{"type":"Point","coordinates":[-8.60626,41.16072]}},{"type":"Feature","properties":{"id":169,"year":"21","month":"09","normalized_date":0.71875,"type":1,"ts":0.7,"freg":1,"weight":0.0,"endereco":"Rua Rua M\u00e1rtires da Liberdade 178 3 tras","entradas_repetidas":1,"host_listings_number":1},"geometry":{"type":"Point","coordinates":[-8.61375,41.15194]}},{"type":"Feature","properties":{"id":170,"year":"21","month":"11","normalized_date":0.734375,"type":1,"ts":0.71,"freg":1,"weight":0.0,"endereco":"Rua Rua Flores 186 A 190  ","entradas_repetidas":1,"host_listings_number":1},"geometry":{"type":"Point","coordinates":[-8.612703,41.144348]}},{"type":"Feature","properties":{"id":171,"year":"21","month":"09","normalized_date":0.71875,"type":1,"ts":0.7,"freg":1,"weight":0.0,"endereco":"Rua Rua Mouzinho da Silveira 79 3 Direito","entradas_repetidas":1,"host_listings_number":1},"geometry":{"type":"Point","coordinates":[-8.61405,41.14298]}},{"type":"Feature","properties":{"id":172,"year":"21","month":"09","normalized_date":0.71875,"type":1,"ts":0.7,"freg":1,"weight":0.0,"endereco":"Rua Rua Mouzinho da Silveira 322 5 AP52","entradas_repetidas":1,"host_listings_number":1},"geometry":{"type":"Point","coordinates":[-8.611354,41.144749]}},{"type":"Feature","properties":{"id":173,"year":"21","month":"10","normalized_date":0.7265625,"type":1,"ts":0.71,"freg":1,"weight":0.0,"endereco":"Rua Rua Cativo 54 3\u00ba Esq","entradas_repetidas":1,"host_listings_number":1},"geometry":{"type":"Point","coordinates":[-8.60826,41.14426]}},{"type":"Feature","properties":{"id":174,"year":"21","month":"10","normalized_date":0.7265625,"type":1,"ts":0.71,"freg":1,"weight":0.0,"endereco":"Rua Rua Cedofeita 178 2\u00ba Esq.","entradas_repetidas":1,"host_listings_number":1},"geometry":{"type":"Point","coordinates":[-8.61692,41.15038]}},{"type":"Feature","properties":{"id":175,"year":"21","month":"10","normalized_date":0.7265625,"type":1,"ts":0.71,"freg":1,"weight":0.0,"endereco":"Avenida Avenida Rodrigues de Freitas 312 3\u00ba D ","entradas_repetidas":1,"host_listings_number":1},"geometry":{"type":"Point","coordinates":[-8.60405,41.14549]}},{"type":"Feature","properties":{"id":176,"year":"21","month":"10","normalized_date":0.7265625,"type":1,"ts":0.71,"freg":3,"weight":0.0,"endereco":"Rua Rua Jo\u00e3o Grave 128 2 D","entradas_repetidas":1,"host_listings_number":1},"geometry":{"type":"Point","coordinates":[-8.64419,41.15968]}},{"type":"Feature","properties":{"id":177,"year":"21","month":"09","normalized_date":0.71875,"type":2,"ts":0.7,"freg":1,"weight":0.0,"endereco":"Rua Rua Sol 43 0-1-2 ","entradas_repetidas":1,"host_listings_number":1},"geometry":{"type":"Point","coordinates":[-8.60617,41.14307]}},{"type":"Feature","properties":{"id":178,"year":"21","month":"10","normalized_date":0.7265625,"type":1,"ts":0.71,"freg":2,"weight":0.0,"endereco":"Rua Rua Santos Pousada 5 1.\u00ba-F ","entradas_repetidas":1,"host_listings_number":1},"geometry":{"type":"Point","coordinates":[-8.60067,41.14889]}},{"type":"Feature","properties":{"id":179,"year":"21","month":"10","normalized_date":0.7265625,"type":1,"ts":0.71,"freg":1,"weight":0.0,"endereco":"Rua Rua Campinho 32 3\u00ba Frente ","entradas_repetidas":1,"host_listings_number":1},"geometry":{"type":"Point","coordinates":[-8.60486,41.14582]}},{"type":"Feature","properties":{"id":180,"year":"21","month":"10","normalized_date":0.7265625,"type":1,"ts":0.71,"freg":1,"weight":0.0,"endereco":"Rua Rua Faria Guimar\u00e3es 33 6 F","entradas_repetidas":1,"host_listings_number":1},"geometry":{"type":"Point","coordinates":[-8.60919,41.15773]}},{"type":"Feature","properties":{"id":181,"year":"21","month":"11","normalized_date":0.734375,"type":1,"ts":0.71,"freg":3,"weight":0.0,"endereco":"Rua Rua Piedade 208/212 7\u00b0 ","entradas_repetidas":1,"host_listings_number":1},"geometry":{"type":"Point","coordinates":[-8.62564,41.15209]}},{"type":"Feature","properties":{"id":182,"year":"21","month":"11","normalized_date":0.734375,"type":1,"ts":0.72,"freg":2,"weight":0.0,"endereco":"Rua Rua Bonfim 102 1\u00ba ","entradas_repetidas":1,"host_listings_number":1},"geometry":{"type":"Point","coordinates":[-8.59767,41.1487]}},{"type":"Feature","properties":{"id":183,"year":"21","month":"09","normalized_date":0.71875,"type":1,"ts":0.7,"freg":3,"weight":0.0,"endereco":"Rua Rua Calouste Gulbenkian 219 4.\u00ba ET","entradas_repetidas":1,"host_listings_number":1},"geometry":{"type":"Point","coordinates":[-8.626996,41.150186]}},{"type":"Feature","properties":{"id":184,"year":"21","month":"11","normalized_date":0.734375,"type":2,"ts":0.72,"freg":3,"weight":0.0,"endereco":"Rua Rua Jo\u00e3o Grave 74  ","entradas_repetidas":1,"host_listings_number":1},"geometry":{"type":"Point","coordinates":[-8.64448,41.1593]}},{"type":"Feature","properties":{"id":185,"year":"21","month":"12","normalized_date":0.7421875,"type":1,"ts":0.72,"freg":2,"weight":0.0,"endereco":"Rua Rua S\u00e3o Rosendo 253 2 ","entradas_repetidas":1,"host_listings_number":1},"geometry":{"type":"Point","coordinates":[-8.59051,41.1506]}},{"type":"Feature","properties":{"id":186,"year":"22","month":"01","normalized_date":0.75,"type":1,"ts":0.73,"freg":1,"weight":0.0,"endereco":"Passeio Passeio Virtudes 7 6 Dt Tras","entradas_repetidas":1,"host_listings_number":1},"geometry":{"type":"Point","coordinates":[-8.61808,41.14446]}},{"type":"Feature","properties":{"id":187,"year":"22","month":"02","normalized_date":0.7578125,"type":4,"ts":0.74,"freg":1,"weight":0.0,"endereco":"Rua Rua Escura 23/25/27  ","entradas_repetidas":1,"host_listings_number":1},"geometry":{"type":"Point","coordinates":[-8.61161,41.14337]}},{"type":"Feature","properties":{"id":188,"year":"22","month":"01","normalized_date":0.75,"type":1,"ts":0.73,"freg":1,"weight":0.0,"endereco":"Rua Rua General Norton de Matos 68 8.\u00ba Esq. Tr\u00e1s","entradas_repetidas":1,"host_listings_number":1},"geometry":{"type":"Point","coordinates":[-8.63063,41.16434]}},{"type":"Feature","properties":{"id":189,"year":"22","month":"01","normalized_date":0.75,"type":1,"ts":0.73,"freg":1,"weight":0.0,"endereco":"Rua Rua Cedofeita 68 3\u00ba Frente","entradas_repetidas":1,"host_listings_number":1},"geometry":{"type":"Point","coordinates":[-8.61645,41.14941]}},{"type":"Feature","properties":{"id":190,"year":"22","month":"01","normalized_date":0.75,"type":3,"ts":0.73,"freg":1,"weight":0.0,"endereco":"Rua Bandeirinha 26  ","entradas_repetidas":1,"host_listings_number":1},"geometry":{"type":"Point","coordinates":[-8.62157,41.14503]}},{"type":"Feature","properties":{"id":191,"year":"22","month":"05","normalized_date":0.78125,"type":1,"ts":0.76,"freg":1,"weight":0.0,"endereco":"Rua Rua Boavista 484 3 Direito","entradas_repetidas":1,"host_listings_number":1},"geometry":{"type":"Point","coordinates":[-8.61899,41.1563]}},{"type":"Feature","properties":{"id":192,"year":"22","month":"01","normalized_date":0.75,"type":1,"ts":0.73,"freg":2,"weight":0.0,"endereco":"Rua Rua Santos Pousada 866 4 Esq","entradas_repetidas":1,"host_listings_number":1},"geometry":{"type":"Point","coordinates":[-8.59903,41.1565]}},{"type":"Feature","properties":{"id":193,"year":"22","month":"01","normalized_date":0.75,"type":1,"ts":0.73,"freg":1,"weight":0.0,"endereco":"Rua Rua Brito Capelo 108 3 Esquerdo","entradas_repetidas":1,"host_listings_number":1},"geometry":{"type":"Point","coordinates":[-8.61971,41.16208]}},{"type":"Feature","properties":{"id":194,"year":"22","month":"01","normalized_date":0.75,"type":1,"ts":0.73,"freg":1,"weight":0.0,"endereco":"Rua Rua Nossa Senhora F\u00e1tima 82 1\u00ba DT T","entradas_repetidas":1,"host_listings_number":1},"geometry":{"type":"Point","coordinates":[-8.62332,41.16033]}},{"type":"Feature","properties":{"id":195,"year":"22","month":"06","normalized_date":0.7890625,"type":1,"ts":0.77,"freg":1,"weight":0.0,"endereco":"Rua Rua Bonjardim 948 1\u00ba Dto","entradas_repetidas":1,"host_listings_number":1},"geometry":{"type":"Point","coordinates":[-8.60763,41.15606]}},{"type":"Feature","properties":{"id":196,"year":"22","month":"02","normalized_date":0.7578125,"type":3,"ts":0.74,"freg":1,"weight":0.0,"endereco":"Rua Rua Capit\u00e3o Pombeiro 7  ","entradas_repetidas":1,"host_listings_number":1},"geometry":{"type":"Point","coordinates":[-8.61118,41.16459]}},{"type":"Feature","properties":{"id":197,"year":"22","month":"01","normalized_date":0.75,"type":1,"ts":0.73,"freg":2,"weight":0.0,"endereco":"Rua Rua Santa Catarina 1480 1.\u00ba E1.2","entradas_repetidas":1,"host_listings_number":1},"geometry":{"type":"Point","coordinates":[-8.60438,41.15933]}},{"type":"Feature","properties":{"id":198,"year":"22","month":"01","normalized_date":0.75,"type":1,"ts":0.73,"freg":1,"weight":0.0,"endereco":"Rua Rua Antero de Quental 212 4\u00ba Direito","entradas_repetidas":1,"host_listings_number":1},"geometry":{"type":"Point","coordinates":[-8.61165,41.16002]}},{"type":"Feature","properties":{"id":199,"year":"22","month":"01","normalized_date":0.75,"type":4,"ts":0.73,"freg":1,"weight":0.0,"endereco":"Rua Rua Gon\u00e7alo Crist\u00f3v\u00e3o 12  ","entradas_repetidas":1,"host_listings_number":1},"geometry":{"type":"Point","coordinates":[-8.60534,41.15363]}},{"type":"Feature","properties":{"id":200,"year":"22","month":"02","normalized_date":0.7578125,"type":1,"ts":0.74,"freg":6,"weight":0.0,"endereco":"Rua Rua Pinto Bessa 67 3\u00ba FRT","entradas_repetidas":1,"host_listings_number":1},"geometry":{"type":"Point","coordinates":[-8.58702,41.14893]}},{"type":"Feature","properties":{"id":201,"year":"22","month":"02","normalized_date":0.7578125,"type":1,"ts":0.74,"freg":1,"weight":0.0,"endereco":"Rua Rua Para\u00edso 39 4\u00ba ","entradas_repetidas":1,"host_listings_number":1},"geometry":{"type":"Point","coordinates":[-8.60762,41.15746]}},{"type":"Feature","properties":{"id":202,"year":"21","month":"12","normalized_date":0.7421875,"type":4,"ts":0.72,"freg":1,"weight":0.0,"endereco":"Rua Rua Santo Ildefonso 288-290 1\u00ba ","entradas_repetidas":1,"host_listings_number":1},"geometry":{"type":"Point","coordinates":[-8.60258,41.1468]}},{"type":"Feature","properties":{"id":203,"year":"21","month":"10","normalized_date":0.7265625,"type":3,"ts":0.71,"freg":3,"weight":0.0,"endereco":"Avenida Avenida Boavista 621  ","entradas_repetidas":1,"host_listings_number":1},"geometry":{"type":"Point","coordinates":[-8.63108,41.1581]}},{"type":"Feature","properties":{"id":204,"year":"21","month":"12","normalized_date":0.7421875,"type":1,"ts":0.72,"freg":3,"weight":0.0,"endereco":"Rua Vilar 210 9\u00ba Frt","entradas_repetidas":1,"host_listings_number":1},"geometry":{"type":"Point","coordinates":[-8.626032,41.152287]}},{"type":"Feature","properties":{"id":205,"year":"21","month":"11","normalized_date":0.734375,"type":1,"ts":0.72,"freg":1,"weight":0.0,"endereco":"Rua Rua Corpo da Guarda 60 1 ","entradas_repetidas":1,"host_listings_number":1},"geometry":{"type":"Point","coordinates":[-8.611039,41.145048]}},{"type":"Feature","properties":{"id":206,"year":"21","month":"12","normalized_date":0.7421875,"type":3,"ts":0.72,"freg":1,"weight":0.0,"endereco":"Rua Rua Antero de Quental 138  ","entradas_repetidas":1,"host_listings_number":1},"geometry":{"type":"Point","coordinates":[-8.61181,41.15935]}},{"type":"Feature","properties":{"id":207,"year":"22","month":"01","normalized_date":0.75,"type":1,"ts":0.73,"freg":1,"weight":0.0,"endereco":"Rua Rua Almada 293-295 3\u00ba TRS.","entradas_repetidas":1,"host_listings_number":1},"geometry":{"type":"Point","coordinates":[-8.61219,41.14931]}},{"type":"Feature","properties":{"id":208,"year":"21","month":"12","normalized_date":0.7421875,"type":1,"ts":0.73,"freg":1,"weight":0.0,"endereco":"Rua Rua Bragas 348 1 ","entradas_repetidas":1,"host_listings_number":1},"geometry":{"type":"Point","coordinates":[-8.61762,41.1526]}},{"type":"Feature","properties":{"id":209,"year":"21","month":"11","normalized_date":0.734375,"type":3,"ts":0.72,"freg":1,"weight":0.0,"endereco":"Pra\u00e7a Pra\u00e7a Guilherme Gomes Fernandes 24 3 ESQ - TRAS","entradas_repetidas":1,"host_listings_number":1},"geometry":{"type":"Point","coordinates":[-8.61473,41.14741]}},{"type":"Feature","properties":{"id":210,"year":"22","month":"01","normalized_date":0.75,"type":1,"ts":0.73,"freg":1,"weight":0.0,"endereco":"Rua Rua S\u00e1 da Bandeira 260 2 esq","entradas_repetidas":1,"host_listings_number":1},"geometry":{"type":"Point","coordinates":[-8.60786,41.14849]}},{"type":"Feature","properties":{"id":211,"year":"21","month":"11","normalized_date":0.734375,"type":1,"ts":0.72,"freg":1,"weight":0.0,"endereco":"Pra\u00e7a Pra\u00e7a Parada Leit\u00e3o 19 1 2 3  ","entradas_repetidas":1,"host_listings_number":1},"geometry":{"type":"Point","coordinates":[-8.61658,41.14657]}},{"type":"Feature","properties":{"id":212,"year":"18","month":"11","normalized_date":0.453125,"type":1,"ts":0.45,"freg":1,"weight":0.0,"endereco":"Rua Rua Santo Ildefonso 14 2 frt","entradas_repetidas":1,"host_listings_number":1},"geometry":{"type":"Point","coordinates":[-8.60641,41.14592]}},{"type":"Feature","properties":{"id":213,"year":"21","month":"12","normalized_date":0.7421875,"type":1,"ts":0.72,"freg":1,"weight":0.0,"endereco":"Rua Rua Fontainhas 99 3\u00ba ","entradas_repetidas":1,"host_listings_number":1},"geometry":{"type":"Point","coordinates":[-8.60256,41.14394]}},{"type":"Feature","properties":{"id":214,"year":"22","month":"01","normalized_date":0.75,"type":1,"ts":0.73,"freg":1,"weight":0.0,"endereco":"Viela Viela Ilha do Ferro 12 3 ","entradas_repetidas":1,"host_listings_number":1},"geometry":{"type":"Point","coordinates":[-8.621533,41.143967]}},{"type":"Feature","properties":{"id":215,"year":"23","month":"04","normalized_date":0.8671875,"type":3,"ts":0.84,"freg":1,"weight":0.0,"endereco":"Rua Rua Alferes Malheiro 131 - -","entradas_repetidas":1,"host_listings_number":1},"geometry":{"type":"Point","coordinates":[-8.610821,41.152202]}},{"type":"Feature","properties":{"id":216,"year":"21","month":"12","normalized_date":0.7421875,"type":1,"ts":0.72,"freg":1,"weight":0.0,"endereco":"Rua Rua do Ros\u00e1rio 110 3 Esquerdo","entradas_repetidas":1,"host_listings_number":1},"geometry":{"type":"Point","coordinates":[-8.62072,41.14931]}},{"type":"Feature","properties":{"id":217,"year":"21","month":"12","normalized_date":0.7421875,"type":1,"ts":0.72,"freg":2,"weight":0.0,"endereco":"Rua Rua Coutinho de Azevedo 105 2\u00ba Drt ","entradas_repetidas":1,"host_listings_number":1},"geometry":{"type":"Point","coordinates":[-8.5956,41.15733]}},{"type":"Feature","properties":{"id":218,"year":"21","month":"12","normalized_date":0.7421875,"type":1,"ts":0.72,"freg":1,"weight":0.0,"endereco":"Rua Rua Miguel Bombarda 194 R/C ","entradas_repetidas":1,"host_listings_number":1},"geometry":{"type":"Point","coordinates":[-8.6193,41.14991]}},{"type":"Feature","properties":{"id":219,"year":"21","month":"11","normalized_date":0.734375,"type":1,"ts":0.72,"freg":1,"weight":0.0,"endereco":"Largo Largo Camar\u00e3o 27 3 Esquerdo","entradas_repetidas":1,"host_listings_number":1},"geometry":{"type":"Point","coordinates":[-8.60151,41.14513]}},{"type":"Feature","properties":{"id":220,"year":"19","month":"07","normalized_date":0.515625,"type":3,"ts":0.51,"freg":2,"weight":0.0,"endereco":"Rua Rua Bonfim 532  ","entradas_repetidas":1,"host_listings_number":1},"geometry":{"type":"Point","coordinates":[-8.591837,41.152671]}},{"type":"Feature","properties":{"id":221,"year":"22","month":"03","normalized_date":0.765625,"type":3,"ts":0.74,"freg":1,"weight":0.0,"endereco":"Rua Rua Passos Manuel 14 2 ","entradas_repetidas":1,"host_listings_number":1},"geometry":{"type":"Point","coordinates":[-8.60839,41.14728]}},{"type":"Feature","properties":{"id":222,"year":"21","month":"09","normalized_date":0.71875,"type":1,"ts":0.7,"freg":1,"weight":0.0,"endereco":"Rua Rua S\u00e3o Jo\u00e3o 34 6 Frt","entradas_repetidas":1,"host_listings_number":1},"geometry":{"type":"Point","coordinates":[-8.61328,41.14128]}},{"type":"Feature","properties":{"id":223,"year":"21","month":"04","normalized_date":0.6796875,"type":3,"ts":0.66,"freg":1,"weight":0.0,"endereco":"Rua Rua Santo Ildefonso 112  ","entradas_repetidas":1,"host_listings_number":1},"geometry":{"type":"Point","coordinates":[-8.60477,41.14629]}},{"type":"Feature","properties":{"id":224,"year":"21","month":"05","normalized_date":0.6875,"type":3,"ts":0.67,"freg":1,"weight":0.0,"endereco":"Rua Rua Afonso Martins Alho 113  ","entradas_repetidas":1,"host_listings_number":1},"geometry":{"type":"Point","coordinates":[-8.612288,41.144384]}},{"type":"Feature","properties":{"id":225,"year":"18","month":"04","normalized_date":0.3984375,"type":1,"ts":0.39,"freg":4,"weight":0.0,"endereco":"Rua Rua Lindo Vale 71 1\u00ba ","entradas_repetidas":1,"host_listings_number":1},"geometry":{"type":"Point","coordinates":[-8.60392,41.16249]}},{"type":"Feature","properties":{"id":226,"year":"21","month":"05","normalized_date":0.6875,"type":1,"ts":0.67,"freg":1,"weight":0.0,"endereco":"Avenida Avenida Fran\u00e7a 72 2\u00ba ","entradas_repetidas":1,"host_listings_number":1},"geometry":{"type":"Point","coordinates":[-8.62852,41.15959]}},{"type":"Feature","properties":{"id":227,"year":"21","month":"05","normalized_date":0.6875,"type":1,"ts":0.67,"freg":2,"weight":0.0,"endereco":"Rua Rua Joaquim Ant\u00f3nio de Aguiar 182 1.\u00ba Tras.","entradas_repetidas":1,"host_listings_number":1},"geometry":{"type":"Point","coordinates":[-8.59731,41.14514]}},{"type":"Feature","properties":{"id":228,"year":"21","month":"04","normalized_date":0.6796875,"type":3,"ts":0.67,"freg":2,"weight":0.0,"endereco":"Rua Rua Vigorosa 736  ","entradas_repetidas":1,"host_listings_number":1},"geometry":{"type":"Point","coordinates":[-8.59014,41.16633]}},{"type":"Feature","properties":{"id":229,"year":"21","month":"04","normalized_date":0.6796875,"type":3,"ts":0.66,"freg":1,"weight":0.0,"endereco":"Avenida Avenida Fran\u00e7a 86 1\u00ba e 2\u00ba esquerdo","entradas_repetidas":1,"host_listings_number":1},"geometry":{"type":"Point","coordinates":[-8.62848,41.15971]}},{"type":"Feature","properties":{"id":230,"year":"21","month":"05","normalized_date":0.6875,"type":1,"ts":0.67,"freg":1,"weight":0.0,"endereco":"Rua Rua M\u00e1rtires da Liberdade 81 2\u00ba ESQ.","entradas_repetidas":1,"host_listings_number":1},"geometry":{"type":"Point","coordinates":[-8.61403,41.15129]}},{"type":"Feature","properties":{"id":231,"year":"21","month":"05","normalized_date":0.6875,"type":1,"ts":0.67,"freg":4,"weight":0.0,"endereco":"Rua Rua Faria Guimar\u00e3es 701 3 Traseiras","entradas_repetidas":1,"host_listings_number":1},"geometry":{"type":"Point","coordinates":[-8.60679,41.163441]}},{"type":"Feature","properties":{"id":232,"year":"21","month":"06","normalized_date":0.6953125,"type":5,"ts":0.68,"freg":1,"weight":0.0,"endereco":"Rua Rua Igreja de Cedofeita 67  ","entradas_repetidas":1,"host_listings_number":1},"geometry":{"type":"Point","coordinates":[-8.619852,41.155748]}},{"type":"Feature","properties":{"id":233,"year":"21","month":"05","normalized_date":0.6875,"type":3,"ts":0.67,"freg":1,"weight":0.0,"endereco":"Rua Rua Flores 241  ","entradas_repetidas":1,"host_listings_number":1},"geometry":{"type":"Point","coordinates":[-8.61197,41.14486]}},{"type":"Feature","properties":{"id":234,"year":"21","month":"05","normalized_date":0.6875,"type":2,"ts":0.67,"freg":1,"weight":0.0,"endereco":"Rua Rua Cidral de Cima 3 RDC ","entradas_repetidas":1,"host_listings_number":1},"geometry":{"type":"Point","coordinates":[-8.6204,41.1442]}},{"type":"Feature","properties":{"id":235,"year":"21","month":"06","normalized_date":0.6953125,"type":1,"ts":0.68,"freg":2,"weight":0.0,"endereco":"Rua Rua Pinto Bessa 641 4\u00ba D","entradas_repetidas":1,"host_listings_number":1},"geometry":{"type":"Point","coordinates":[-8.59336,41.15063]}},{"type":"Feature","properties":{"id":236,"year":"21","month":"06","normalized_date":0.6953125,"type":4,"ts":0.68,"freg":1,"weight":0.0,"endereco":"Rua Ceuta 16 4\u00ba e 5\u00ba ","entradas_repetidas":1,"host_listings_number":1},"geometry":{"type":"Point","coordinates":[-8.6134,41.14837]}},{"type":"Feature","properties":{"id":237,"year":"21","month":"05","normalized_date":0.6875,"type":1,"ts":0.67,"freg":1,"weight":0.0,"endereco":"Rua Rua An\u00edbal Cunha 39 2\u00ba Sala 4","entradas_repetidas":1,"host_listings_number":1},"geometry":{"type":"Point","coordinates":[-8.621026,41.153056]}},{"type":"Feature","properties":{"id":238,"year":"21","month":"08","normalized_date":0.7109375,"type":1,"ts":0.69,"freg":1,"weight":0.0,"endereco":"Rua Rua Firmeza 462 3 ","entradas_repetidas":1,"host_listings_number":1},"geometry":{"type":"Point","coordinates":[-8.60572,41.15103]}},{"type":"Feature","properties":{"id":239,"year":"21","month":"04","normalized_date":0.6796875,"type":1,"ts":0.67,"freg":1,"weight":0.0,"endereco":"Viela Viela Ilha do Ferro 12 1 ","entradas_repetidas":1,"host_listings_number":1},"geometry":{"type":"Point","coordinates":[-8.621539,41.143985]}},{"type":"Feature","properties":{"id":240,"year":"21","month":"03","normalized_date":0.671875,"type":1,"ts":0.66,"freg":1,"weight":0.0,"endereco":"Rua Rua Flores 172 4/5 frac\u00e7\u00e3o Q","entradas_repetidas":1,"host_listings_number":1},"geometry":{"type":"Point","coordinates":[-8.612852,41.144271]}},{"type":"Feature","properties":{"id":241,"year":"21","month":"01","normalized_date":0.65625,"type":1,"ts":0.64,"freg":3,"weight":0.0,"endereco":"Largo Largo do Adro 2A 3\u00ba ","entradas_repetidas":1,"host_listings_number":1},"geometry":{"type":"Point","coordinates":[-8.630293,41.146276]}},{"type":"Feature","properties":{"id":242,"year":"24","month":"12","normalized_date":1,"type":1,"ts":0.99,"freg":1,"weight":0.0,"endereco":"Rua Rua Pinheiro 16 1 TRAZ","entradas_repetidas":1,"host_listings_number":1},"geometry":{"type":"Point","coordinates":[-8.613213,41.150422]}},{"type":"Feature","properties":{"id":243,"year":"21","month":"02","normalized_date":0.6640625,"type":2,"ts":0.65,"freg":5,"weight":0.0,"endereco":"Travessa Travessa Passeio Alegre 12  ","entradas_repetidas":1,"host_listings_number":1},"geometry":{"type":"Point","coordinates":[-8.67231,41.1498]}},{"type":"Feature","properties":{"id":244,"year":"20","month":"10","normalized_date":0.6328125,"type":2,"ts":0.62,"freg":5,"weight":0.0,"endereco":"Avenida Avenida Montevideu 818 e 834  ","entradas_repetidas":1,"host_listings_number":1},"geometry":{"type":"Point","coordinates":[-8.68734,41.16627]}},{"type":"Feature","properties":{"id":245,"year":"21","month":"02","normalized_date":0.6640625,"type":1,"ts":0.65,"freg":1,"weight":0.0,"endereco":"Rua Rua Santa Catarina 925 5 Esq","entradas_repetidas":1,"host_listings_number":1},"geometry":{"type":"Point","coordinates":[-8.60482,41.15436]}},{"type":"Feature","properties":{"id":246,"year":"21","month":"02","normalized_date":0.6640625,"type":3,"ts":0.65,"freg":1,"weight":0.0,"endereco":"Rua Rua Cedofeita 280  ","entradas_repetidas":1,"host_listings_number":1},"geometry":{"type":"Point","coordinates":[-8.61739,41.15131]}},{"type":"Feature","properties":{"id":247,"year":"21","month":"01","normalized_date":0.65625,"type":1,"ts":0.64,"freg":1,"weight":0.0,"endereco":"Rua Rua Mercadores 75 6 M","entradas_repetidas":1,"host_listings_number":1},"geometry":{"type":"Point","coordinates":[-8.61331,41.14185]}},{"type":"Feature","properties":{"id":248,"year":"21","month":"01","normalized_date":0.65625,"type":5,"ts":0.64,"freg":2,"weight":0.0,"endereco":"Rua Rua Constitui\u00e7\u00e3o 379 5 ","entradas_repetidas":1,"host_listings_number":1},"geometry":{"type":"Point","coordinates":[-8.60291,41.16099]}},{"type":"Feature","properties":{"id":249,"year":"21","month":"02","normalized_date":0.6640625,"type":1,"ts":0.65,"freg":6,"weight":0.0,"endereco":"Rua Rua Para\u00edso do Freixo 9 2 DF","entradas_repetidas":1,"host_listings_number":1},"geometry":{"type":"Point","coordinates":[-8.586322,41.147165]}},{"type":"Feature","properties":{"id":250,"year":"21","month":"02","normalized_date":0.6640625,"type":3,"ts":0.65,"freg":3,"weight":0.0,"endereco":"Rua Rua J\u00falio Dinis 891 1\u00ba Direito","entradas_repetidas":1,"host_listings_number":1},"geometry":{"type":"Point","coordinates":[-8.628156,41.156419]}},{"type":"Feature","properties":{"id":251,"year":"21","month":"06","normalized_date":0.6953125,"type":1,"ts":0.68,"freg":1,"weight":0.0,"endereco":"Rua Rua Almada 55 2\u00ba dto tras","entradas_repetidas":1,"host_listings_number":1},"geometry":{"type":"Point","coordinates":[-8.612268,41.146493]}},{"type":"Feature","properties":{"id":252,"year":"18","month":"09","normalized_date":0.4375,"type":1,"ts":0.43,"freg":1,"weight":0.0,"endereco":"Rua Rua Boavista 161 4 traseiras","entradas_repetidas":1,"host_listings_number":1},"geometry":{"type":"Point","coordinates":[-8.61528,41.15553]}},{"type":"Feature","properties":{"id":253,"year":"21","month":"03","normalized_date":0.671875,"type":2,"ts":0.66,"freg":2,"weight":0.0,"endereco":"Pra\u00e7a Pra\u00e7a Alegria 18  ","entradas_repetidas":1,"host_listings_number":1},"geometry":{"type":"Point","coordinates":[-8.60033,41.14404]}},{"type":"Feature","properties":{"id":254,"year":"21","month":"03","normalized_date":0.671875,"type":2,"ts":0.66,"freg":1,"weight":0.0,"endereco":"Rua Rua Monte da Lapa 73  ","entradas_repetidas":1,"host_listings_number":1},"geometry":{"type":"Point","coordinates":[-8.61295,41.15895]}},{"type":"Feature","properties":{"id":255,"year":"21","month":"02","normalized_date":0.6640625,"type":4,"ts":0.65,"freg":7,"weight":0.0,"endereco":"Rua Rua Monte dos Burgos 923  ","entradas_repetidas":1,"host_listings_number":1},"geometry":{"type":"Point","coordinates":[-8.62885,41.17759]}},{"type":"Feature","properties":{"id":256,"year":"18","month":"11","normalized_date":0.453125,"type":1,"ts":0.44,"freg":1,"weight":0.0,"endereco":"Rua Rua Rocha Martins 8 2 Esquerdo","entradas_repetidas":1,"host_listings_number":1},"geometry":{"type":"Point","coordinates":[-8.6313,41.16304]}},{"type":"Feature","properties":{"id":257,"year":"21","month":"09","normalized_date":0.71875,"type":1,"ts":0.7,"freg":1,"weight":0.0,"endereco":"Rua Rua 15 de Novembro 100 3.\u00ba 3.2","entradas_repetidas":1,"host_listings_number":1},"geometry":{"type":"Point","coordinates":[-8.63291,41.15953]}},{"type":"Feature","properties":{"id":258,"year":"21","month":"06","normalized_date":0.6953125,"type":3,"ts":0.68,"freg":1,"weight":0.0,"endereco":"Travessa Travessa S\u00e3o Sebasti\u00e3o 39  ","entradas_repetidas":1,"host_listings_number":1},"geometry":{"type":"Point","coordinates":[-8.61141,41.14395]}},{"type":"Feature","properties":{"id":259,"year":"21","month":"06","normalized_date":0.6953125,"type":5,"ts":0.68,"freg":6,"weight":0.0,"endereco":"Travessa Travessa Nova Sintra 292  ","entradas_repetidas":1,"host_listings_number":1},"geometry":{"type":"Point","coordinates":[-8.58752,41.1468]}},{"type":"Feature","properties":{"id":260,"year":"21","month":"08","normalized_date":0.7109375,"type":3,"ts":0.69,"freg":1,"weight":0.0,"endereco":"Rua Rua Jo\u00e3o Pedro Ribeiro 835  ","entradas_repetidas":1,"host_listings_number":1},"geometry":{"type":"Point","coordinates":[-8.6082,41.1611]}},{"type":"Feature","properties":{"id":261,"year":"21","month":"08","normalized_date":0.7109375,"type":3,"ts":0.69,"freg":2,"weight":0.0,"endereco":"Rua Rua Duque Palmela 5  ","entradas_repetidas":1,"host_listings_number":1},"geometry":{"type":"Point","coordinates":[-8.5966,41.14298]}},{"type":"Feature","properties":{"id":262,"year":"21","month":"08","normalized_date":0.7109375,"type":1,"ts":0.69,"freg":1,"weight":0.0,"endereco":"Rua Rua Dom Manuel II 33 5 Dto","entradas_repetidas":1,"host_listings_number":1},"geometry":{"type":"Point","coordinates":[-8.620876,41.14734]}},{"type":"Feature","properties":{"id":263,"year":"21","month":"08","normalized_date":0.7109375,"type":1,"ts":0.69,"freg":2,"weight":0.0,"endereco":"Rua Rua S\u00e3o V\u00edtor casa 3 fra\u00e7\u00e3o M 104  ","entradas_repetidas":1,"host_listings_number":1},"geometry":{"type":"Point","coordinates":[-8.59785,41.142905]}},{"type":"Feature","properties":{"id":264,"year":"11","month":"03","normalized_date":0,"type":3,"ts":0,"freg":4,"weight":0.0,"endereco":"Rua Vale Formoso 8/10  ","entradas_repetidas":1,"host_listings_number":1},"geometry":{"type":"Point","coordinates":[-8.6111,41.165542]}},{"type":"Feature","properties":{"id":265,"year":"21","month":"08","normalized_date":0.7109375,"type":1,"ts":0.7,"freg":2,"weight":0.0,"endereco":"Rua Rua Hero\u00edsmo 280 Rc ","entradas_repetidas":1,"host_listings_number":1},"geometry":{"type":"Point","coordinates":[-8.5937,41.14639]}},{"type":"Feature","properties":{"id":266,"year":"21","month":"08","normalized_date":0.7109375,"type":1,"ts":0.7,"freg":3,"weight":0.0,"endereco":"Rua Rua Trist\u00e3o da Cunha 263/249  ","entradas_repetidas":1,"host_listings_number":1},"geometry":{"type":"Point","coordinates":[-8.66468,41.15936]}},{"type":"Feature","properties":{"id":267,"year":"21","month":"08","normalized_date":0.7109375,"type":1,"ts":0.69,"freg":1,"weight":0.0,"endereco":"Rua Rua Almada 295 RCH Traseiro","entradas_repetidas":1,"host_listings_number":1},"geometry":{"type":"Point","coordinates":[-8.61219,41.14932]}},{"type":"Feature","properties":{"id":268,"year":"21","month":"09","normalized_date":0.71875,"type":1,"ts":0.7,"freg":1,"weight":0.0,"endereco":"Rua Rua Boavista 651 RC Traseiras","entradas_repetidas":1,"host_listings_number":1},"geometry":{"type":"Point","coordinates":[-8.62098,41.1565]}},{"type":"Feature","properties":{"id":269,"year":"21","month":"09","normalized_date":0.71875,"type":1,"ts":0.7,"freg":1,"weight":0.0,"endereco":"Rua Rua Taipas 73 3 CENTRO","entradas_repetidas":1,"host_listings_number":1},"geometry":{"type":"Point","coordinates":[-8.61747,41.14358]}},{"type":"Feature","properties":{"id":270,"year":"21","month":"09","normalized_date":0.71875,"type":1,"ts":0.7,"freg":1,"weight":0.0,"endereco":"Travessa Travessa Fontinha 36 0 B","entradas_repetidas":1,"host_listings_number":1},"geometry":{"type":"Point","coordinates":[-8.60516,41.15492]}},{"type":"Feature","properties":{"id":271,"year":"21","month":"08","normalized_date":0.7109375,"type":1,"ts":0.7,"freg":1,"weight":0.0,"endereco":"Largo Largo Doutor Tito Fontes 127 1.\u00ba  ","entradas_repetidas":1,"host_listings_number":1},"geometry":{"type":"Point","coordinates":[-8.60842,41.15289]}},{"type":"Feature","properties":{"id":272,"year":"21","month":"08","normalized_date":0.7109375,"type":1,"ts":0.7,"freg":3,"weight":0.0,"endereco":"Rua Rua Campo Alegre 1348 R/Ch\u00e3o ","entradas_repetidas":1,"host_listings_number":1},"geometry":{"type":"Point","coordinates":[-8.64389,41.15494]}},{"type":"Feature","properties":{"id":273,"year":"21","month":"08","normalized_date":0.7109375,"type":4,"ts":0.69,"freg":1,"weight":0.0,"endereco":"Rua Rua Oliveiras 73 1.\u00ba ","entradas_repetidas":1,"host_listings_number":1},"geometry":{"type":"Point","coordinates":[-8.61489,41.14977]}},{"type":"Feature","properties":{"id":274,"year":"21","month":"08","normalized_date":0.7109375,"type":3,"ts":0.7,"freg":1,"weight":0.0,"endereco":"Rua Rua Caldeireiros 259  ","entradas_repetidas":1,"host_listings_number":1},"geometry":{"type":"Point","coordinates":[-8.61507,41.14483]}},{"type":"Feature","properties":{"id":275,"year":"21","month":"08","normalized_date":0.7109375,"type":1,"ts":0.69,"freg":2,"weight":0.0,"endereco":"Rua Rua Alegria 855 1\u00ba ESQ","entradas_repetidas":1,"host_listings_number":1},"geometry":{"type":"Point","coordinates":[-8.60139,41.15897]}},{"type":"Feature","properties":{"id":276,"year":"21","month":"08","normalized_date":0.7109375,"type":1,"ts":0.69,"freg":3,"weight":0.0,"endereco":"Rua Rua Boa Hora 85 1\u00ba ","entradas_repetidas":1,"host_listings_number":1},"geometry":{"type":"Point","coordinates":[-8.62092,41.15246]}},{"type":"Feature","properties":{"id":277,"year":"21","month":"08","normalized_date":0.7109375,"type":1,"ts":0.69,"freg":2,"weight":0.0,"endereco":"Rua Rua Barros Lima 811 R/C A","entradas_repetidas":1,"host_listings_number":1},"geometry":{"type":"Point","coordinates":[-8.59515,41.15356]}},{"type":"Feature","properties":{"id":278,"year":"21","month":"07","normalized_date":0.703125,"type":1,"ts":0.68,"freg":1,"weight":0.0,"endereco":"Rua Rua Fernandes Tom\u00e1s 755 3 Traseiras","entradas_repetidas":1,"host_listings_number":1},"geometry":{"type":"Point","coordinates":[-8.60748,41.15011]}},{"type":"Feature","properties":{"id":279,"year":"21","month":"06","normalized_date":0.6953125,"type":2,"ts":0.68,"freg":1,"weight":0.0,"endereco":"Rua Rua central do Bairro Herculano, rua 1 18  A","entradas_repetidas":1,"host_listings_number":1},"geometry":{"type":"Point","coordinates":[-8.603495,41.14406]}},{"type":"Feature","properties":{"id":280,"year":"21","month":"06","normalized_date":0.6953125,"type":2,"ts":0.68,"freg":5,"weight":0.0,"endereco":"Rua Rua Alfageme de Santar\u00e9m 36  ","entradas_repetidas":1,"host_listings_number":1},"geometry":{"type":"Point","coordinates":[-8.67567,41.1605]}},{"type":"Feature","properties":{"id":281,"year":"21","month":"07","normalized_date":0.703125,"type":1,"ts":0.68,"freg":2,"weight":0.0,"endereco":"Rua Rua Moreira 37 1 esq","entradas_repetidas":1,"host_listings_number":1},"geometry":{"type":"Point","coordinates":[-8.60302,41.15334]}},{"type":"Feature","properties":{"id":282,"year":"21","month":"07","normalized_date":0.703125,"type":1,"ts":0.68,"freg":2,"weight":0.0,"endereco":"Rua Rua Santa Catarina 1240 5 Frente","entradas_repetidas":1,"host_listings_number":1},"geometry":{"type":"Point","coordinates":[-8.60448,41.15715]}},{"type":"Feature","properties":{"id":283,"year":"21","month":"06","normalized_date":0.6953125,"type":2,"ts":0.68,"freg":7,"weight":0.0,"endereco":"Rua Rua Pereir\u00f3  149/159  ","entradas_repetidas":1,"host_listings_number":1},"geometry":{"type":"Point","coordinates":[-8.65359,41.17154]}},{"type":"Feature","properties":{"id":284,"year":"10","month":"07","normalized_date":0,"type":3,"ts":0,"freg":1,"weight":0.0,"endereco":"Rua Oliveira Monteiro 567  ","entradas_repetidas":1,"host_listings_number":1},"geometry":{"type":"Point","coordinates":[-8.62478,41.16023]}},{"type":"Feature","properties":{"id":285,"year":"21","month":"07","normalized_date":0.703125,"type":1,"ts":0.69,"freg":1,"weight":0.0,"endereco":"Rua Rua Cam\u00f5es 556 3 4","entradas_repetidas":1,"host_listings_number":1},"geometry":{"type":"Point","coordinates":[-8.609908,41.156952]}},{"type":"Feature","properties":{"id":286,"year":"21","month":"07","normalized_date":0.703125,"type":1,"ts":0.69,"freg":1,"weight":0.0,"endereco":"Rua Rua Duque Loul\u00e9 221 R/CH Traseiras","entradas_repetidas":1,"host_listings_number":1},"geometry":{"type":"Point","coordinates":[-8.604587,41.145003]}},{"type":"Feature","properties":{"id":287,"year":"21","month":"06","normalized_date":0.6953125,"type":1,"ts":0.68,"freg":1,"weight":0.0,"endereco":"Rua Rua Santa Catarina 358/362 3 ","entradas_repetidas":1,"host_listings_number":1},"geometry":{"type":"Point","coordinates":[-8.60588,41.14927]}},{"type":"Feature","properties":{"id":288,"year":"21","month":"08","normalized_date":0.7109375,"type":1,"ts":0.69,"freg":1,"weight":0.0,"endereco":"Rua Rua do Sol 124 3\u00ba Frente - G","entradas_repetidas":1,"host_listings_number":1},"geometry":{"type":"Point","coordinates":[-8.60644,41.14322]}},{"type":"Feature","properties":{"id":289,"year":"18","month":"07","normalized_date":0.421875,"type":2,"ts":0.41,"freg":1,"weight":0.0,"endereco":"Rua Rua Lapa 51A  ","entradas_repetidas":1,"host_listings_number":1},"geometry":{"type":"Point","coordinates":[-8.61328,41.15626]}},{"type":"Feature","properties":{"id":290,"year":"22","month":"08","normalized_date":0.8046875,"type":3,"ts":0.78,"freg":6,"weight":0.0,"endereco":"Rua Rua Miraflor 123  ","entradas_repetidas":1,"host_listings_number":1},"geometry":{"type":"Point","coordinates":[-8.58757,41.14832]}},{"type":"Feature","properties":{"id":291,"year":"21","month":"07","normalized_date":0.703125,"type":1,"ts":0.69,"freg":3,"weight":0.0,"endereco":"Rua Rua Paulo da Gama 520 2 Esquerdo","entradas_repetidas":1,"host_listings_number":1},"geometry":{"type":"Point","coordinates":[-8.65858,41.14881]}},{"type":"Feature","properties":{"id":292,"year":"21","month":"07","normalized_date":0.703125,"type":1,"ts":0.69,"freg":7,"weight":0.0,"endereco":"Rua Rua Senhora Porto 343 2\u00ba C","entradas_repetidas":1,"host_listings_number":1},"geometry":{"type":"Point","coordinates":[-8.63052,41.17726]}},{"type":"Feature","properties":{"id":293,"year":"21","month":"06","normalized_date":0.6953125,"type":1,"ts":0.68,"freg":4,"weight":0.0,"endereco":"Rua Rua Silva Porto 476 2\u00ba ","entradas_repetidas":1,"host_listings_number":1},"geometry":{"type":"Point","coordinates":[-8.61908,41.17118]}},{"type":"Feature","properties":{"id":294,"year":"19","month":"07","normalized_date":0.515625,"type":1,"ts":0.51,"freg":1,"weight":0.0,"endereco":"Rua Rua Mouzinho da Silveira 65 2 ","entradas_repetidas":1,"host_listings_number":1},"geometry":{"type":"Point","coordinates":[-8.614079,41.142859]}},{"type":"Feature","properties":{"id":295,"year":"19","month":"08","normalized_date":0.5234375,"type":1,"ts":0.51,"freg":1,"weight":0.0,"endereco":"Rua Rua Fernandes Tom\u00e1s 844 2 ","entradas_repetidas":1,"host_listings_number":1},"geometry":{"type":"Point","coordinates":[-8.608415,41.150416]}},{"type":"Feature","properties":{"id":296,"year":"19","month":"09","normalized_date":0.53125,"type":1,"ts":0.52,"freg":4,"weight":0.0,"endereco":"Travessa Travessa Bica Velha 128 4\u00ba hab.45","entradas_repetidas":1,"host_listings_number":1},"geometry":{"type":"Point","coordinates":[-8.620581,41.16795]}},{"type":"Feature","properties":{"id":297,"year":"75","month":"08","normalized_date":0,"type":3,"ts":0,"freg":1,"weight":0.0,"endereco":"Rua Rua Alexandre Herculano 144  ","entradas_repetidas":1,"host_listings_number":1},"geometry":{"type":"Point","coordinates":[-8.603533,41.14357]}},{"type":"Feature","properties":{"id":298,"year":"18","month":"08","normalized_date":0.4296875,"type":2,"ts":0.42,"freg":1,"weight":0.0,"endereco":"Rua Rua Senhora Verdades 18  ","entradas_repetidas":1,"host_listings_number":1},"geometry":{"type":"Point","coordinates":[-8.61033,41.141644]}},{"type":"Feature","properties":{"id":299,"year":"18","month":"09","normalized_date":0.4375,"type":1,"ts":0.42,"freg":1,"weight":0.0,"endereco":"Rua Rua Formosa 213 1\u00ba ","entradas_repetidas":1,"host_listings_number":1},"geometry":{"type":"Point","coordinates":[-8.605409,41.148032]}},{"type":"Feature","properties":{"id":300,"year":"18","month":"09","normalized_date":0.4375,"type":1,"ts":0.42,"freg":1,"weight":0.0,"endereco":"1\u00aa Rua Rua da Alegria  329 A 4\u00baB EF","entradas_repetidas":1,"host_listings_number":1},"geometry":{"type":"Point","coordinates":[-8.604133,41.151817]}},{"type":"Feature","properties":{"id":301,"year":"18","month":"09","normalized_date":0.4375,"type":4,"ts":0.43,"freg":1,"weight":0.0,"endereco":"Rua Rua Oliveiras 61  ","entradas_repetidas":1,"host_listings_number":1},"geometry":{"type":"Point","coordinates":[-8.614888,41.149645]}},{"type":"Feature","properties":{"id":302,"year":"18","month":"08","normalized_date":0.4296875,"type":1,"ts":0.42,"freg":2,"weight":0.0,"endereco":"Rua Rua Alegria 322 3 dt\u00ba","entradas_repetidas":1,"host_listings_number":1},"geometry":{"type":"Point","coordinates":[-8.604059,41.151804]}},{"type":"Feature","properties":{"id":303,"year":"18","month":"08","normalized_date":0.4296875,"type":2,"ts":0.42,"freg":1,"weight":0.0,"endereco":"Rua Rua Cam\u00f5es 684  ","entradas_repetidas":1,"host_listings_number":1},"geometry":{"type":"Point","coordinates":[-8.609927,41.158052]}},{"type":"Feature","properties":{"id":304,"year":"18","month":"09","normalized_date":0.4375,"type":1,"ts":0.43,"freg":5,"weight":0.0,"endereco":"Avenida do Brasil 250 1\u00ba e 2\u00ba ","entradas_repetidas":1,"host_listings_number":1},"geometry":{"type":"Point","coordinates":[-8.679727,41.15461]}},{"type":"Feature","properties":{"id":305,"year":"18","month":"09","normalized_date":0.4375,"type":3,"ts":0.43,"freg":6,"weight":0.0,"endereco":"Rua Rua Monte da Esta\u00e7\u00e3o 105 e 115  ","entradas_repetidas":1,"host_listings_number":1},"geometry":{"type":"Point","coordinates":[-8.585667,41.151524]}},{"type":"Feature","properties":{"id":306,"year":"18","month":"09","normalized_date":0.4375,"type":1,"ts":0.43,"freg":1,"weight":0.0,"endereco":"Rua Rua Nossa Senhora F\u00e1tima 474, 476 2 DT","entradas_repetidas":1,"host_listings_number":1},"geometry":{"type":"Point","coordinates":[-8.627454,41.1587]}},{"type":"Feature","properties":{"id":307,"year":"18","month":"09","normalized_date":0.4375,"type":4,"ts":0.43,"freg":1,"weight":0.0,"endereco":"Rua Rua Arquiteto Nicolau Nazoni   ","entradas_repetidas":1,"host_listings_number":1},"geometry":{"type":"Point","coordinates":[-8.613486,41.145595]}},{"type":"Feature","properties":{"id":308,"year":"18","month":"09","normalized_date":0.4375,"type":1,"ts":0.43,"freg":1,"weight":0.0,"endereco":"Rua 31 janeiro 223 2 d","entradas_repetidas":1,"host_listings_number":1},"geometry":{"type":"Point","coordinates":[-8.607474,41.146173]}},{"type":"Feature","properties":{"id":309,"year":"18","month":"10","normalized_date":0.4453125,"type":3,"ts":0.43,"freg":1,"weight":0.0,"endereco":"Rua Rua Constitui\u00e7\u00e3o 1205  ","entradas_repetidas":1,"host_listings_number":1},"geometry":{"type":"Point","coordinates":[-8.612498,41.16286]}},{"type":"Feature","properties":{"id":310,"year":"18","month":"09","normalized_date":0.4375,"type":1,"ts":0.43,"freg":2,"weight":0.0,"endereco":"Rua Rua Santo Ildefonso 354 1\u00ba Frente","entradas_repetidas":1,"host_listings_number":1},"geometry":{"type":"Point","coordinates":[-8.601738,41.147161]}},{"type":"Feature","properties":{"id":311,"year":"18","month":"09","normalized_date":0.4375,"type":1,"ts":0.43,"freg":1,"weight":0.0,"endereco":"Pra\u00e7a Pra\u00e7a Rep\u00fablica 93 3.\u00ba Esc. 2","entradas_repetidas":1,"host_listings_number":1},"geometry":{"type":"Point","coordinates":[-8.613351,41.154513]}},{"type":"Feature","properties":{"id":312,"year":"12","month":"10","normalized_date":0,"type":1,"ts":0,"freg":5,"weight":0.0,"endereco":"Cal\u00e7ada Cal\u00e7ada Serrubia 2 - 4      ","entradas_repetidas":1,"host_listings_number":1},"geometry":{"type":"Point","coordinates":[-8.667755,41.147989]}},{"type":"Feature","properties":{"id":313,"year":"18","month":"08","normalized_date":0.4296875,"type":1,"ts":0.42,"freg":7,"weight":0.0,"endereco":"1\u00aa Rua Rua Pedro Hispano  610 R/C Direito","entradas_repetidas":1,"host_listings_number":1},"geometry":{"type":"Point","coordinates":[-8.635197,41.162857]}},{"type":"Feature","properties":{"id":314,"year":"18","month":"08","normalized_date":0.4296875,"type":1,"ts":0.42,"freg":2,"weight":0.0,"endereco":"1\u00aa Rua Rua Santa Catarina 996 3 Direito A","entradas_repetidas":1,"host_listings_number":1},"geometry":{"type":"Point","coordinates":[-8.604656,41.154948]}},{"type":"Feature","properties":{"id":315,"year":"18","month":"07","normalized_date":0.421875,"type":3,"ts":0.42,"freg":6,"weight":0.0,"endereco":"Rua Rua Pinto Bessa 188  ","entradas_repetidas":1,"host_listings_number":1},"geometry":{"type":"Point","coordinates":[-8.588203,41.149403]}},{"type":"Feature","properties":{"id":316,"year":"18","month":"08","normalized_date":0.4296875,"type":1,"ts":0.42,"freg":2,"weight":0.0,"endereco":"Rua Rua Dom Agostinho de Jesus e Sousa 46 5\u00ba Drt","entradas_repetidas":1,"host_listings_number":1},"geometry":{"type":"Point","coordinates":[-8.596615,41.153794]}},{"type":"Feature","properties":{"id":317,"year":"18","month":"08","normalized_date":0.4296875,"type":3,"ts":0.42,"freg":7,"weight":0.0,"endereco":"Rua Monte dos Burgos 874  ","entradas_repetidas":1,"host_listings_number":1},"geometry":{"type":"Point","coordinates":[-8.628519,41.1772]}},{"type":"Feature","properties":{"id":318,"year":"18","month":"09","normalized_date":0.4375,"type":1,"ts":0.42,"freg":1,"weight":0.0,"endereco":"Rua Rua Mouzinho da Silveira 120 3 ","entradas_repetidas":1,"host_listings_number":1},"geometry":{"type":"Point","coordinates":[-8.613913,41.142916]}},{"type":"Feature","properties":{"id":319,"year":"18","month":"12","normalized_date":0.4609375,"type":3,"ts":0.45,"freg":2,"weight":0.0,"endereco":"1\u00aa Rua Santa Catarina 1118  ","entradas_repetidas":1,"host_listings_number":1},"geometry":{"type":"Point","coordinates":[-8.604617,41.156063]}},{"type":"Feature","properties":{"id":320,"year":"18","month":"08","normalized_date":0.4296875,"type":1,"ts":0.42,"freg":1,"weight":0.0,"endereco":"Passeio Passeio S\u00e3o L\u00e1zaro 41 1\u00ba tras","entradas_repetidas":1,"host_listings_number":1},"geometry":{"type":"Point","coordinates":[-8.60242,41.14631]}},{"type":"Feature","properties":{"id":321,"year":"18","month":"08","normalized_date":0.4296875,"type":2,"ts":0.42,"freg":2,"weight":0.0,"endereco":"Travessa Travessa P\u00f3voa 195  ","entradas_repetidas":1,"host_listings_number":1},"geometry":{"type":"Point","coordinates":[-8.596196,41.155357]}},{"type":"Feature","properties":{"id":322,"year":"18","month":"10","normalized_date":0.4453125,"type":1,"ts":0.43,"freg":1,"weight":0.0,"endereco":"Rua Rua Boavista 62 1\u00ba Dt\u00ba","entradas_repetidas":1,"host_listings_number":1},"geometry":{"type":"Point","coordinates":[-8.614077,41.155446]}},{"type":"Feature","properties":{"id":323,"year":"18","month":"09","normalized_date":0.4375,"type":1,"ts":0.42,"freg":1,"weight":0.0,"endereco":"Rua Rua Aldas 25 2\u00ba Traseiras","entradas_repetidas":1,"host_listings_number":1},"geometry":{"type":"Point","coordinates":[-8.612765,41.142697]}},{"type":"Feature","properties":{"id":324,"year":"18","month":"08","normalized_date":0.4296875,"type":1,"ts":0.42,"freg":1,"weight":0.0,"endereco":"Rua Rua Alexandre Herculano 169 2.\u00ba Tras.","entradas_repetidas":1,"host_listings_number":1},"geometry":{"type":"Point","coordinates":[-8.60386,41.143633]}},{"type":"Feature","properties":{"id":325,"year":"18","month":"08","normalized_date":0.4296875,"type":1,"ts":0.42,"freg":1,"weight":0.0,"endereco":"Rua Lapa 60 3 ","entradas_repetidas":1,"host_listings_number":1},"geometry":{"type":"Point","coordinates":[-8.613169,41.156466]}},{"type":"Feature","properties":{"id":326,"year":"18","month":"08","normalized_date":0.4296875,"type":4,"ts":0.42,"freg":1,"weight":0.0,"endereco":"Rua Rua Santa Catarina 1337/1347  ","entradas_repetidas":1,"host_listings_number":1},"geometry":{"type":"Point","coordinates":[-8.604632,41.158021]}},{"type":"Feature","properties":{"id":327,"year":"18","month":"08","normalized_date":0.4296875,"type":3,"ts":0.42,"freg":2,"weight":0.0,"endereco":"Rua Rua Ferreira Cardoso 90  ","entradas_repetidas":1,"host_listings_number":1},"geometry":{"type":"Point","coordinates":[-8.596772,41.147152]}},{"type":"Feature","properties":{"id":328,"year":"18","month":"08","normalized_date":0.4296875,"type":2,"ts":0.42,"freg":7,"weight":0.0,"endereco":"Rua Rua Cruzes 683  ","entradas_repetidas":1,"host_listings_number":1},"geometry":{"type":"Point","coordinates":[-8.641517,41.172506]}},{"type":"Feature","properties":{"id":329,"year":"18","month":"09","normalized_date":0.4375,"type":2,"ts":0.42,"freg":2,"weight":0.0,"endereco":"Rua Rua Oliveirinhas 6  ","entradas_repetidas":1,"host_listings_number":1},"geometry":{"type":"Point","coordinates":[-8.601797,41.147833]}},{"type":"Feature","properties":{"id":330,"year":"84","month":"02","normalized_date":0,"type":3,"ts":0,"freg":2,"weight":0.0,"endereco":"Pra\u00e7a Pra\u00e7a Alegria 40  ","entradas_repetidas":1,"host_listings_number":1},"geometry":{"type":"Point","coordinates":[-8.599391,41.14444]}},{"type":"Feature","properties":{"id":331,"year":"18","month":"08","normalized_date":0.4296875,"type":1,"ts":0.42,"freg":7,"weight":0.0,"endereco":"Rua Rua Castelos 375 3 trazeiras","entradas_repetidas":1,"host_listings_number":1},"geometry":{"type":"Point","coordinates":[-8.630452,41.169112]}},{"type":"Feature","properties":{"id":332,"year":"18","month":"09","normalized_date":0.4375,"type":1,"ts":0.43,"freg":2,"weight":0.0,"endereco":"Rua Rua Santo Ildefonso 352 2\u00ba Tr\u00e1s","entradas_repetidas":1,"host_listings_number":1},"geometry":{"type":"Point","coordinates":[-8.601756,41.147162]}},{"type":"Feature","properties":{"id":333,"year":"18","month":"10","normalized_date":0.4453125,"type":1,"ts":0.44,"freg":1,"weight":0.0,"endereco":"Rua Rua Para\u00edso 184 1.\u00ba,  dto fre","entradas_repetidas":1,"host_listings_number":1},"geometry":{"type":"Point","coordinates":[-8.609374,41.157343]}},{"type":"Feature","properties":{"id":334,"year":"18","month":"11","normalized_date":0.453125,"type":1,"ts":0.44,"freg":1,"weight":0.0,"endereco":"Rua Rua Bar\u00e3o Forrester 867  ","entradas_repetidas":1,"host_listings_number":1},"geometry":{"type":"Point","coordinates":[-8.620733,41.1596]}},{"type":"Feature","properties":{"id":335,"year":"18","month":"10","normalized_date":0.4453125,"type":1,"ts":0.44,"freg":2,"weight":0.0,"endereco":"Rua Rua Dom Jo\u00e3o IV 654 1\u00ba Drt Frt","entradas_repetidas":1,"host_listings_number":1},"geometry":{"type":"Point","coordinates":[-8.602316,41.152395]}},{"type":"Feature","properties":{"id":336,"year":"18","month":"11","normalized_date":0.453125,"type":3,"ts":0.45,"freg":6,"weight":0.0,"endereco":"Rua Rua Antas 187 1\u00ba ","entradas_repetidas":1,"host_listings_number":1},"geometry":{"type":"Point","coordinates":[-8.591456,41.158236]}},{"type":"Feature","properties":{"id":337,"year":"18","month":"10","normalized_date":0.4453125,"type":2,"ts":0.44,"freg":6,"weight":0.0,"endereco":"Rua Rua Antas 191  ","entradas_repetidas":1,"host_listings_number":1},"geometry":{"type":"Point","coordinates":[-8.591456,41.158272]}},{"type":"Feature","properties":{"id":338,"year":"18","month":"10","normalized_date":0.4453125,"type":2,"ts":0.44,"freg":6,"weight":0.0,"endereco":"Rua Rua Antas 193  ","entradas_repetidas":1,"host_listings_number":1},"geometry":{"type":"Point","coordinates":[-8.591466,41.158299]}},{"type":"Feature","properties":{"id":339,"year":"18","month":"10","normalized_date":0.4453125,"type":2,"ts":0.44,"freg":6,"weight":0.0,"endereco":"Rua Rua Antas 195  ","entradas_repetidas":1,"host_listings_number":1},