{"type":"FeatureCollection","features":[{"type":"Feature","properties":{"id":1,"year":"19","month":"05","type":3,"ts":0.64,"mega_host_2":"False","mega_host_3":"False","freg":6,"weight":0.0,"endereco":"Rua Rua Freixo 1680  ","entradas_repetidas":1,"host_listings_number":1},"geometry":{"type":"Point","coordinates":[-8.586809,41.147265]}},{"type":"Feature","properties":{"id":2,"year":"17","month":"05","type":2,"ts":0.49,"mega_host_2":"False","mega_host_3":"False","freg":2,"weight":0.0,"endereco":"Rua Rua Hero\u00edsmo 239  ","entradas_repetidas":1,"host_listings_number":1},"geometry":{"type":"Point","coordinates":[-8.593662,41.146273]}},{"type":"Feature","properties":{"id":3,"year":"18","month":"07","type":1,"ts":0.58,"mega_host_2":"False","mega_host_3":"False","freg":1,"weight":0.0,"endereco":"Rua Rua Francisco da Rocha Soares 94 r/ch ","entradas_repetidas":1,"host_listings_number":1},"geometry":{"type":"Point","coordinates":[-8.618426,41.143099]}},{"type":"Feature","properties":{"id":4,"year":"23","month":"01","type":2,"ts":0.92,"mega_host_2":"False","mega_host_3":"False","freg":1,"weight":0.0,"endereco":"Travessa Travessa da Figueiroa 15  ","entradas_repetidas":1,"host_listings_number":1},"geometry":{"type":"Point","coordinates":[-8.618771,41.155503]}},{"type":"Feature","properties":{"id":5,"year":"23","month":"05","type":1,"ts":0.95,"mega_host_2":"False","mega_host_3":"False","freg":1,"weight":0.2463768115942029,"endereco":"Rua Rua Almada 551 RC/1 0.3 C","entradas_repetidas":18,"host_listings_number":1},"geometry":{"type":"Point","coordinates":[-8.612181,41.152138]}},{"type":"Feature","properties":{"id":6,"year":"18","month":"09","type":1,"ts":0.59,"mega_host_2":"False","mega_host_3":"False","freg":1,"weight":0.08695652173913043,"endereco":"Rua Rua Boavista 161 4 traseiras","entradas_repetidas":7,"host_listings_number":1},"geometry":{"type":"Point","coordinates":[-8.615316,41.155492]}},{"type":"Feature","properties":{"id":7,"year":"22","month":"10","type":1,"ts":0.91,"mega_host_2":"False","mega_host_3":"False","freg":2,"weight":0.08695652173913043,"endereco":"Rua Hero\u00edsmo 263 2\u00ba ","entradas_repetidas":7,"host_listings_number":1},"geometry":{"type":"Point","coordinates":[-8.594017,41.146124]}},{"type":"Feature","properties":{"id":8,"year":"18","month":"07","type":1,"ts":0.58,"mega_host_2":"False","mega_host_3":"False","freg":1,"weight":0.014492753623188406,"endereco":"Rua Rua Bragas 354 2\u00ba ","entradas_repetidas":2,"host_listings_number":1},"geometry":{"type":"Point","coordinates":[-8.617653,41.152593]}},{"type":"Feature","properties":{"id":9,"year":"17","month":"05","type":2,"ts":0.49,"mega_host_2":"False","mega_host_3":"False","freg":2,"weight":0.0,"endereco":"Rua Rua Santos Pousada 619  ","entradas_repetidas":1,"host_listings_number":1},"geometry":{"type":"Point","coordinates":[-8.599645,41.154332]}},{"type":"Feature","properties":{"id":10,"year":"22","month":"10","type":1,"ts":0.91,"mega_host_2":"False","mega_host_3":"False","freg":1,"weight":0.18840579710144928,"endereco":"Largo Largo L\u00f3ios 15 4 P","entradas_repetidas":14,"host_listings_number":1},"geometry":{"type":"Point","coordinates":[-8.612142,41.145661]}},{"type":"Feature","properties":{"id":11,"year":"22","month":"10","type":1,"ts":0.91,"mega_host_2":"False","mega_host_3":"False","freg":1,"weight":0.028985507246376812,"endereco":"Rua Rua Bragas 137 3 D F","entradas_repetidas":3,"host_listings_number":1},"geometry":{"type":"Point","coordinates":[-8.615253,41.152674]}},{"type":"Feature","properties":{"id":12,"year":"17","month":"07","type":1,"ts":0.5,"mega_host_2":"False","mega_host_3":"False","freg":3,"weight":0.0,"endereco":"Rua Rua J\u00falio Louren\u00e7o Pinto 53 3\u00ba 7","entradas_repetidas":1,"host_listings_number":1},"geometry":{"type":"Point","coordinates":[-8.64746,41.152778]}},{"type":"Feature","properties":{"id":13,"year":"23","month":"08","type":1,"ts":0.97,"mega_host_2":"False","mega_host_3":"False","freg":1,"weight":0.014492753623188406,"endereco":"Rua Rua Bonjardim 670 2\u00ba Frente","entradas_repetidas":2,"host_listings_number":1},"geometry":{"type":"Point","coordinates":[-8.608035,41.152758]}},{"type":"Feature","properties":{"id":14,"year":"17","month":"07","type":1,"ts":0.5,"mega_host_2":"False","mega_host_3":"False","freg":1,"weight":0.07246376811594203,"endereco":"Rua Rua Almada 399 3\u00ba Frt.","entradas_repetidas":6,"host_listings_number":1},"geometry":{"type":"Point","coordinates":[-8.612125,41.150584]}},{"type":"Feature","properties":{"id":15,"year":"15","month":"03","type":1,"ts":0.33,"mega_host_2":"False","mega_host_3":"False","freg":4,"weight":0.0,"endereco":"Rua Doutor Manuel Laranjeira 30 2.\u00ba ","entradas_repetidas":1,"host_listings_number":1},"geometry":{"type":"Point","coordinates":[-8.59713,41.170036]}},{"type":"Feature","properties":{"id":16,"year":"17","month":"07","type":1,"ts":0.5,"mega_host_2":"False","mega_host_3":"False","freg":1,"weight":0.0,"endereco":"1\u00aa Rua Bar\u00e3o de Forrester 803 1 Esq","entradas_repetidas":1,"host_listings_number":1},"geometry":{"type":"Point","coordinates":[-8.620152,41.158813]}},{"type":"Feature","properties":{"id":17,"year":"22","month":"11","type":1,"ts":0.91,"mega_host_2":"False","mega_host_3":"False","freg":2,"weight":0.18840579710144928,"endereco":"Rua Rua Santos Pousada 547 4 4.3","entradas_repetidas":14,"host_listings_number":1},"geometry":{"type":"Point","coordinates":[-8.599823,41.153757]}},{"type":"Feature","properties":{"id":18,"year":"18","month":"10","type":2,"ts":0.6,"mega_host_2":"False","mega_host_3":"False","freg":1,"weight":0.0,"endereco":"Rua Rua Miradouro 64  ","entradas_repetidas":1,"host_listings_number":1},"geometry":{"type":"Point","coordinates":[-8.607679,41.141954]}},{"type":"Feature","properties":{"id":19,"year":"17","month":"08","type":1,"ts":0.51,"mega_host_2":"False","mega_host_3":"False","freg":5,"weight":0.043478260869565216,"endereco":"Esplanada Esplanada Castelo 124 2\u00ba Esq","entradas_repetidas":4,"host_listings_number":1},"geometry":{"type":"Point","coordinates":[-8.675641,41.149808]}},{"type":"Feature","properties":{"id":20,"year":"17","month":"07","type":1,"ts":0.5,"mega_host_2":"False","mega_host_3":"False","freg":1,"weight":0.0,"endereco":"Avenida da Boavista 46 4\u00ba Dto","entradas_repetidas":1,"host_listings_number":1},"geometry":{"type":"Point","coordinates":[-8.624337,41.157262]}},{"type":"Feature","properties":{"id":21,"year":"17","month":"07","type":1,"ts":0.5,"mega_host_2":"False","mega_host_3":"False","freg":1,"weight":0.057971014492753624,"endereco":"Rua Rua Bolh\u00e3o 99 6\u00ba  Traseiras","entradas_repetidas":5,"host_listings_number":1},"geometry":{"type":"Point","coordinates":[-8.607488,41.15118]}},{"type":"Feature","properties":{"id":22,"year":"22","month":"10","type":5,"ts":0.91,"mega_host_2":"False","mega_host_3":"False","freg":1,"weight":0.0,"endereco":"Rua Rua Bandeirinha 86  ","entradas_repetidas":1,"host_listings_number":1},"geometry":{"type":"Point","coordinates":[-8.620279,41.145554]}},{"type":"Feature","properties":{"id":23,"year":"19","month":"07","type":3,"ts":0.66,"mega_host_2":"False","mega_host_3":"False","freg":6,"weight":0.0,"endereco":"Rua Rua Pinheiro de Campanh\u00e3 408  ","entradas_repetidas":1,"host_listings_number":1},"geometry":{"type":"Point","coordinates":[-8.583584,41.150105]}},{"type":"Feature","properties":{"id":24,"year":"18","month":"05","type":1,"ts":0.57,"mega_host_2":"False","mega_host_3":"False","freg":1,"weight":0.10144927536231885,"endereco":"Rua Rua da Vit\u00f3ria 117 3\u00ba Frente","entradas_repetidas":8,"host_listings_number":1},"geometry":{"type":"Point","coordinates":[-8.614398,41.144316]}},{"type":"Feature","properties":{"id":25,"year":"22","month":"10","type":1,"ts":0.91,"mega_host_2":"False","mega_host_3":"False","freg":2,"weight":0.0,"endereco":"Rua Rua S\u00e3o V\u00edtor 1 B ","entradas_repetidas":1,"host_listings_number":1},"geometry":{"type":"Point","coordinates":[-8.597633,41.142646]}},{"type":"Feature","properties":{"id":26,"year":"18","month":"09","type":4,"ts":0.59,"mega_host_2":"False","mega_host_3":"False","freg":1,"weight":0.0,"endereco":"Rua Rua Arquiteto Nicolau Nazoni   ","entradas_repetidas":1,"host_listings_number":1},"geometry":{"type":"Point","coordinates":[-8.613486,41.145595]}},{"type":"Feature","properties":{"id":27,"year":"19","month":"07","type":1,"ts":0.66,"mega_host_2":"False","mega_host_3":"False","freg":1,"weight":0.043478260869565216,"endereco":"Cal\u00e7ada Cal\u00e7ada Monchique 2,4 e 6 R/Ch ","entradas_repetidas":4,"host_listings_number":1},"geometry":{"type":"Point","coordinates":[-8.623571,41.1445]}},{"type":"Feature","properties":{"id":28,"year":"17","month":"05","type":3,"ts":0.49,"mega_host_2":"False","mega_host_3":"False","freg":1,"weight":0.0,"endereco":"Rua Rua \u00c1lvares Cabral 341  ","entradas_repetidas":1,"host_listings_number":1},"geometry":{"type":"Point","coordinates":[-8.614805,41.154594]}},{"type":"Feature","properties":{"id":29,"year":"18","month":"09","type":1,"ts":0.59,"mega_host_2":"False","mega_host_3":"False","freg":1,"weight":0.07246376811594203,"endereco":"Passeio Virtudes 7 2 Esq. Post","entradas_repetidas":6,"host_listings_number":1},"geometry":{"type":"Point","coordinates":[-8.618084,41.144497]}},{"type":"Feature","properties":{"id":30,"year":"22","month":"08","type":1,"ts":0.89,"mega_host_2":"False","mega_host_3":"False","freg":3,"weight":0.11594202898550725,"endereco":"Rua Rua Cristelo 89 2\u00ba DTO, TRAS","entradas_repetidas":9,"host_listings_number":1},"geometry":{"type":"Point","coordinates":[-8.630005,41.145999]}},{"type":"Feature","properties":{"id":31,"year":"22","month":"08","type":2,"ts":0.89,"mega_host_2":"False","mega_host_3":"False","freg":2,"weight":0.0,"endereco":"Rua Rua Duque Terceira 134  ","entradas_repetidas":1,"host_listings_number":1},"geometry":{"type":"Point","coordinates":[-8.597752,41.145259]}},{"type":"Feature","properties":{"id":32,"year":"18","month":"09","type":1,"ts":0.59,"mega_host_2":"False","mega_host_3":"False","freg":1,"weight":0.10144927536231885,"endereco":"Rua Rua Saraiva de Carvalho 12 1\u00ba 2H 2.3","entradas_repetidas":8,"host_listings_number":1},"geometry":{"type":"Point","coordinates":[-8.610058,41.143178]}},{"type":"Feature","properties":{"id":33,"year":"22","month":"07","type":1,"ts":0.89,"mega_host_2":"False","mega_host_3":"False","freg":1,"weight":0.043478260869565216,"endereco":"Rua Rua Monte dos Judeus 44 R/C ","entradas_repetidas":4,"host_listings_number":1},"geometry":{"type":"Point","coordinates":[-8.621157,41.1444]}},{"type":"Feature","properties":{"id":34,"year":"22","month":"08","type":1,"ts":0.89,"mega_host_2":"False","mega_host_3":"False","freg":1,"weight":0.028985507246376812,"endereco":"Rua Rua C\u00f3nego Ferreira Pinto 75 1\u00ba Esq.\u00ba","entradas_repetidas":3,"host_listings_number":1},"geometry":{"type":"Point","coordinates":[-8.626749,41.160562]}},{"type":"Feature","properties":{"id":35,"year":"18","month":"05","type":2,"ts":0.57,"mega_host_2":"False","mega_host_3":"False","freg":5,"weight":0.0,"endereco":"Avenida Avenida Doutor Antunes Guimar\u00e3es 245  ","entradas_repetidas":1,"host_listings_number":1},"geometry":{"type":"Point","coordinates":[-8.661465,41.165689]}},{"type":"Feature","properties":{"id":36,"year":"21","month":"03","type":1,"ts":0.78,"mega_host_2":"False","mega_host_3":"False","freg":1,"weight":0.08695652173913043,"endereco":"Rua Rua Santa Catarina, n\u00ba 951 1\u00ba Andar DF   ","entradas_repetidas":7,"host_listings_number":1},"geometry":{"type":"Point","coordinates":[-8.604799,41.154583]}},{"type":"Feature","properties":{"id":37,"year":"22","month":"10","type":1,"ts":0.91,"mega_host_2":"False","mega_host_3":"False","freg":1,"weight":0.08695652173913043,"endereco":"Rua Rua Fontainhas 207 1 esq","entradas_repetidas":7,"host_listings_number":1},"geometry":{"type":"Point","coordinates":[-8.603087,41.145008]}},{"type":"Feature","properties":{"id":38,"year":"22","month":"10","type":1,"ts":0.91,"mega_host_2":"False","mega_host_3":"False","freg":1,"weight":0.07246376811594203,"endereco":"Largo Largo Arcos da Ribeira 52 e 58 Terceiro Direito","entradas_repetidas":6,"host_listings_number":1},"geometry":{"type":"Point","coordinates":[-8.610699,41.141023]}},{"type":"Feature","properties":{"id":39,"year":"23","month":"06","type":1,"ts":0.96,"mega_host_2":"False","mega_host_3":"False","freg":2,"weight":0.0,"endereco":"Rua Rua S\u00e3o Rosendo 439 2\u00ba andar ","entradas_repetidas":1,"host_listings_number":1},"geometry":{"type":"Point","coordinates":[-8.590959,41.152256]}},{"type":"Feature","properties":{"id":40,"year":"18","month":"05","type":1,"ts":0.57,"mega_host_2":"False","mega_host_3":"False","freg":3,"weight":0.0,"endereco":"Rua Rua Professor Augusto Nobre 319 r/C ","entradas_repetidas":1,"host_listings_number":1},"geometry":{"type":"Point","coordinates":[-8.654065,41.160044]}},{"type":"Feature","properties":{"id":41,"year":"22","month":"10","type":3,"ts":0.91,"mega_host_2":"False","mega_host_3":"False","freg":1,"weight":0.0,"endereco":"Rua Rua Flores 59 1\u00ba e 2\u00ba ","entradas_repetidas":1,"host_listings_number":1},"geometry":{"type":"Point","coordinates":[-8.613877,41.143936]}},{"type":"Feature","properties":{"id":42,"year":"22","month":"10","type":1,"ts":0.91,"mega_host_2":"False","mega_host_3":"False","freg":1,"weight":0.07246376811594203,"endereco":"Rua Rua do Almada 346 3.\u00ba Frente","entradas_repetidas":6,"host_listings_number":1},"geometry":{"type":"Point","coordinates":[-8.611912,41.149592]}},{"type":"Feature","properties":{"id":43,"year":"18","month":"06","type":1,"ts":0.57,"mega_host_2":"False","mega_host_3":"False","freg":2,"weight":0.014492753623188406,"endereco":"Rua Rua Anselmo Braamcamp 65 1 Es.do","entradas_repetidas":2,"host_listings_number":1},"geometry":{"type":"Point","coordinates":[-8.601166,41.15168]}},{"type":"Feature","properties":{"id":44,"year":"17","month":"07","type":1,"ts":0.5,"mega_host_2":"False","mega_host_3":"False","freg":1,"weight":0.014492753623188406,"endereco":"Rua Rua Ramalho Ortig\u00e3o 34 1\u00ba EsqB","entradas_repetidas":2,"host_listings_number":1},"geometry":{"type":"Point","coordinates":[-8.611875,41.149092]}},{"type":"Feature","properties":{"id":45,"year":"22","month":"10","type":1,"ts":0.91,"mega_host_2":"False","mega_host_3":"False","freg":1,"weight":0.028985507246376812,"endereco":"Rua Rua Bonjardim 503 3\u00ba Esq. Traz.","entradas_repetidas":3,"host_listings_number":1},"geometry":{"type":"Point","coordinates":[-8.608402,41.151703]}},{"type":"Feature","properties":{"id":46,"year":"17","month":"06","type":1,"ts":0.5,"mega_host_2":"False","mega_host_3":"False","freg":1,"weight":0.14492753623188406,"endereco":"Rua Rua Gon\u00e7alo Crist\u00f3v\u00e3o  250 sobreloja C","entradas_repetidas":11,"host_listings_number":1},"geometry":{"type":"Point","coordinates":[-8.609604,41.153736]}},{"type":"Feature","properties":{"id":47,"year":"18","month":"10","type":3,"ts":0.6,"mega_host_2":"False","mega_host_3":"False","freg":2,"weight":0.0,"endereco":"Rua Rua Bar\u00e3o S\u00e3o Cosme 79 3 ","entradas_repetidas":1,"host_listings_number":1},"geometry":{"type":"Point","coordinates":[-8.599097,41.145397]}},{"type":"Feature","properties":{"id":48,"year":"18","month":"04","type":1,"ts":0.56,"mega_host_2":"False","mega_host_3":"False","freg":1,"weight":0.057971014492753624,"endereco":"Rua Rua Torrinha 96 R/C Tras.","entradas_repetidas":5,"host_listings_number":1},"geometry":{"type":"Point","coordinates":[-8.619594,41.152498]}},{"type":"Feature","properties":{"id":49,"year":"22","month":"12","type":1,"ts":0.92,"mega_host_2":"False","mega_host_3":"False","freg":1,"weight":0.0,"endereco":"Rua Rua Miguel Bombarda 231 1.\u00ba T","entradas_repetidas":1,"host_listings_number":1},"geometry":{"type":"Point","coordinates":[-8.619676,41.149752]}},{"type":"Feature","properties":{"id":50,"year":"22","month":"02","type":3,"ts":0.85,"mega_host_2":"False","mega_host_3":"False","freg":1,"weight":0.0,"endereco":"Rua Rua Capit\u00e3o Pombeiro 7  ","entradas_repetidas":1,"host_listings_number":1},"geometry":{"type":"Point","coordinates":[-8.611247,41.164586]}},{"type":"Feature","properties":{"id":51,"year":"17","month":"08","type":1,"ts":0.51,"mega_host_2":"False","mega_host_3":"False","freg":1,"weight":0.0,"endereco":"Rua Rua Nove de Julho 58 2\u00ba ","entradas_repetidas":1,"host_listings_number":1},"geometry":{"type":"Point","coordinates":[-8.622971,41.1617]}},{"type":"Feature","properties":{"id":52,"year":"18","month":"10","type":1,"ts":0.6,"mega_host_2":"False","mega_host_3":"False","freg":5,"weight":0.014492753623188406,"endereco":"Rua Rua Diogo Afonso 71 2 25","entradas_repetidas":2,"host_listings_number":1},"geometry":{"type":"Point","coordinates":[-8.664717,41.149602]}},{"type":"Feature","properties":{"id":53,"year":"14","month":"11","type":4,"ts":0.3,"mega_host_2":"False","mega_host_3":"False","freg":2,"weight":0.0,"endereco":"Rua Alegria 913  ","entradas_repetidas":1,"host_listings_number":1},"geometry":{"type":"Point","coordinates":[-8.601029,41.159752]}},{"type":"Feature","properties":{"id":54,"year":"15","month":"04","type":1,"ts":0.33,"mega_host_2":"False","mega_host_3":"False","freg":1,"weight":0.0,"endereco":"Travessa Cedofeita 51A  ","entradas_repetidas":1,"host_listings_number":1},"geometry":{"type":"Point","coordinates":[-8.615434,41.149913]}},{"type":"Feature","properties":{"id":55,"year":"22","month":"06","type":1,"ts":0.88,"mega_host_2":"False","mega_host_3":"False","freg":1,"weight":0.028985507246376812,"endereco":"Rua Rua Bonjardim 948 1\u00ba Dto","entradas_repetidas":3,"host_listings_number":1},"geometry":{"type":"Point","coordinates":[-8.607632,41.156051]}},{"type":"Feature","properties":{"id":56,"year":"15","month":"12","type":1,"ts":0.38,"mega_host_2":"False","mega_host_3":"False","freg":3,"weight":0.0,"endereco":"Rua Guerra Junqueiro 608  ","entradas_repetidas":1,"host_listings_number":1},"geometry":{"type":"Point","coordinates":[-8.636064,41.158265]}},{"type":"Feature","properties":{"id":57,"year":"22","month":"11","type":1,"ts":0.91,"mega_host_2":"False","mega_host_3":"False","freg":1,"weight":0.13043478260869565,"endereco":"Rua Rua Alferes Malheiro 215 2 K","entradas_repetidas":10,"host_listings_number":1},"geometry":{"type":"Point","coordinates":[-8.611765,41.152783]}},{"type":"Feature","properties":{"id":58,"year":"16","month":"09","type":1,"ts":0.44,"mega_host_2":"False","mega_host_3":"False","freg":2,"weight":0.014492753623188406,"endereco":"Avenida Avenida Rodrigues de Freitas 114A 5 Dto","entradas_repetidas":2,"host_listings_number":1},"geometry":{"type":"Point","coordinates":[-8.597913,41.146056]}},{"type":"Feature","properties":{"id":59,"year":"17","month":"07","type":1,"ts":0.5,"mega_host_2":"False","mega_host_3":"False","freg":1,"weight":0.057971014492753624,"endereco":"Rua Rua Santo Ildefonso 72 2 ESQ","entradas_repetidas":5,"host_listings_number":1},"geometry":{"type":"Point","coordinates":[-8.605357,41.146205]}},{"type":"Feature","properties":{"id":60,"year":"22","month":"07","type":3,"ts":0.89,"mega_host_2":"False","mega_host_3":"False","freg":1,"weight":0.0,"endereco":"Rua Rua Arcos 10  ","entradas_repetidas":1,"host_listings_number":1},"geometry":{"type":"Point","coordinates":[-8.623606,41.165455]}},{"type":"Feature","properties":{"id":61,"year":"19","month":"07","type":1,"ts":0.66,"mega_host_2":"False","mega_host_3":"False","freg":1,"weight":0.0,"endereco":"Rua Rua O Com\u00e9rcio do Porto 189 1\u00ba ","entradas_repetidas":1,"host_listings_number":1},"geometry":{"type":"Point","coordinates":[-8.615846,41.1424]}},{"type":"Feature","properties":{"id":62,"year":"15","month":"04","type":1,"ts":0.33,"mega_host_2":"False","mega_host_3":"False","freg":1,"weight":0.028985507246376812,"endereco":"Rua Caldeireiros 16 3\u00ba ","entradas_repetidas":3,"host_listings_number":1},"geometry":{"type":"Point","coordinates":[-8.61235,41.144784]}},{"type":"Feature","properties":{"id":63,"year":"11","month":"10","type":1,"ts":0.06,"mega_host_2":"False","mega_host_3":"False","freg":1,"weight":0.028985507246376812,"endereco":"Rua Taipas 12 1\u00ba ","entradas_repetidas":3,"host_listings_number":1},"geometry":{"type":"Point","coordinates":[-8.617015,41.142596]}},{"type":"Feature","properties":{"id":64,"year":"22","month":"07","type":2,"ts":0.89,"mega_host_2":"False","mega_host_3":"False","freg":5,"weight":0.0,"endereco":"Rua Rua Olivais 64  ","entradas_repetidas":1,"host_listings_number":1},"geometry":{"type":"Point","coordinates":[-8.665978,41.149288]}},{"type":"Feature","properties":{"id":65,"year":"18","month":"07","type":1,"ts":0.58,"mega_host_2":"False","mega_host_3":"False","freg":1,"weight":0.08695652173913043,"endereco":"Rua Rua S\u00e1 da Bandeira 746 3 esq","entradas_repetidas":7,"host_listings_number":1},"geometry":{"type":"Point","coordinates":[-8.605627,41.1526]}},{"type":"Feature","properties":{"id":66,"year":"22","month":"07","type":5,"ts":0.88,"mega_host_2":"False","mega_host_3":"False","freg":3,"weight":0.0,"endereco":"Rua Rua T\u00e2nger 1242  ","entradas_repetidas":1,"host_listings_number":1},"geometry":{"type":"Point","coordinates":[-8.658703,41.161134]}},{"type":"Feature","properties":{"id":67,"year":"22","month":"08","type":3,"ts":0.89,"mega_host_2":"False","mega_host_3":"False","freg":1,"weight":0.0,"endereco":"Campo Campo M\u00e1rtires da P\u00e1tria 130  ","entradas_repetidas":1,"host_listings_number":1},"geometry":{"type":"Point","coordinates":[-8.615339,41.145237]}},{"type":"Feature","properties":{"id":68,"year":"17","month":"07","type":1,"ts":0.5,"mega_host_2":"False","mega_host_3":"False","freg":1,"weight":0.028985507246376812,"endereco":"Rua Rua Lapa 39 1 Tras.","entradas_repetidas":3,"host_listings_number":1},"geometry":{"type":"Point","coordinates":[-8.613394,41.156056]}},{"type":"Feature","properties":{"id":69,"year":"19","month":"07","type":3,"ts":0.66,"mega_host_2":"False","mega_host_3":"False","freg":2,"weight":0.0,"endereco":"Rua Rua Bonfim 532  ","entradas_repetidas":1,"host_listings_number":1},"geometry":{"type":"Point","coordinates":[-8.591768,41.15268]}},{"type":"Feature","properties":{"id":70,"year":"15","month":"04","type":1,"ts":0.33,"mega_host_2":"False","mega_host_3":"False","freg":1,"weight":0.028985507246376812,"endereco":"Rua Cam\u00f5es 21 5\u00ba esq.","entradas_repetidas":3,"host_listings_number":1},"geometry":{"type":"Point","coordinates":[-8.610214,41.152137]}},{"type":"Feature","properties":{"id":71,"year":"17","month":"07","type":1,"ts":0.5,"mega_host_2":"False","mega_host_3":"False","freg":1,"weight":0.0,"endereco":"Rua Rua Monte dos Judeus 74 1\u00ba B ","entradas_repetidas":1,"host_listings_number":1},"geometry":{"type":"Point","coordinates":[-8.621526,41.144522]}},{"type":"Feature","properties":{"id":72,"year":"18","month":"10","type":5,"ts":0.6,"mega_host_2":"False","mega_host_3":"False","freg":1,"weight":0.028985507246376812,"endereco":"Rua Rua Jo\u00e3o das Regras 87 4 Esq","entradas_repetidas":3,"host_listings_number":1},"geometry":{"type":"Point","coordinates":[-8.608751,41.155087]}},{"type":"Feature","properties":{"id":73,"year":"18","month":"10","type":1,"ts":0.6,"mega_host_2":"False","mega_host_3":"False","freg":1,"weight":0.0,"endereco":"Rua Rua Santo Ildefonso 218 2 Frente","entradas_repetidas":1,"host_listings_number":1},"geometry":{"type":"Point","coordinates":[-8.603352,41.146607]}},{"type":"Feature","properties":{"id":74,"year":"22","month":"10","type":3,"ts":0.91,"mega_host_2":"False","mega_host_3":"False","freg":1,"weight":0.0,"endereco":"Rua Rua Entreparedes 25 e 27  ","entradas_repetidas":1,"host_listings_number":1},"geometry":{"type":"Point","coordinates":[-8.605702,41.145455]}},{"type":"Feature","properties":{"id":75,"year":"22","month":"11","type":1,"ts":0.91,"mega_host_2":"False","mega_host_3":"False","freg":2,"weight":0.0,"endereco":"Rua Rua Alegria 1047 2\u00ba G","entradas_repetidas":1,"host_listings_number":1},"geometry":{"type":"Point","coordinates":[-8.600506,41.161135]}},{"type":"Feature","properties":{"id":76,"year":"18","month":"03","type":1,"ts":0.55,"mega_host_2":"False","mega_host_3":"False","freg":1,"weight":0.2463768115942029,"endereco":"Rua Rua de Entreparedes 62 2 Q","entradas_repetidas":18,"host_listings_number":1},"geometry":{"type":"Point","coordinates":[-8.605598,41.145371]}},{"type":"Feature","properties":{"id":77,"year":"18","month":"02","type":1,"ts":0.55,"mega_host_2":"False","mega_host_3":"False","freg":3,"weight":0.0,"endereco":"Rua Rua dos Belos Ares 32 2 Esq","entradas_repetidas":1,"host_listings_number":1},"geometry":{"type":"Point","coordinates":[-8.63791,41.159764]}},{"type":"Feature","properties":{"id":78,"year":"22","month":"10","type":1,"ts":0.91,"mega_host_2":"False","mega_host_3":"False","freg":6,"weight":0.014492753623188406,"endereco":"Rua Rua Sabrosa 91 11C ","entradas_repetidas":2,"host_listings_number":1},"geometry":{"type":"Point","coordinates":[-8.586487,41.144121]}},{"type":"Feature","properties":{"id":79,"year":"23","month":"02","type":1,"ts":0.93,"mega_host_2":"False","mega_host_3":"False","freg":2,"weight":0.34782608695652173,"endereco":"Rua Rua Senhora Dores 122 3\u00ba Andar Fra\u00e7\u00e3o Y","entradas_repetidas":25,"host_listings_number":1},"geometry":{"type":"Point","coordinates":[-8.601319,41.145084]}},{"type":"Feature","properties":{"id":80,"year":"18","month":"03","type":1,"ts":0.55,"mega_host_2":"False","mega_host_3":"False","freg":1,"weight":0.10144927536231885,"endereco":"Rua Rua 31 de Janeiro 165 3\u00ba tar","entradas_repetidas":8,"host_listings_number":1},"geometry":{"type":"Point","coordinates":[-8.608112,41.146221]}},{"type":"Feature","properties":{"id":81,"year":"19","month":"07","type":1,"ts":0.66,"mega_host_2":"False","mega_host_3":"False","freg":1,"weight":0.0,"endereco":"Rua Rua Nossa Senhora F\u00e1tima 476 1 Esq Tras G","entradas_repetidas":1,"host_listings_number":1},"geometry":{"type":"Point","coordinates":[-8.627463,41.1587]}},{"type":"Feature","properties":{"id":82,"year":"18","month":"04","type":1,"ts":0.56,"mega_host_2":"False","mega_host_3":"False","freg":1,"weight":0.0,"endereco":"Rua Rua S\u00e1 da Bandeira 766 5\u00ba ap. 12 esq","entradas_repetidas":1,"host_listings_number":1},"geometry":{"type":"Point","coordinates":[-8.60551,41.152765]}},{"type":"Feature","properties":{"id":83,"year":"16","month":"06","type":3,"ts":0.42,"mega_host_2":"False","mega_host_3":"False","freg":1,"weight":0.0,"endereco":"Rua Rua Francisco da Rocha Soares 8 1 ","entradas_repetidas":1,"host_listings_number":1},"geometry":{"type":"Point","coordinates":[-8.618039,41.142273]}},{"type":"Feature","properties":{"id":84,"year":"16","month":"11","type":1,"ts":0.45,"mega_host_2":"False","mega_host_3":"False","freg":1,"weight":0.014492753623188406,"endereco":"Rua Rua Restaura\u00e7\u00e3o 296 3 ","entradas_repetidas":2,"host_listings_number":1},"geometry":{"type":"Point","coordinates":[-8.62375,41.145516]}},{"type":"Feature","properties":{"id":85,"year":"16","month":"11","type":1,"ts":0.45,"mega_host_2":"False","mega_host_3":"False","freg":5,"weight":0.0,"endereco":"Rua Rua Padre Lu\u00eds Cabral 818 rc e","entradas_repetidas":1,"host_listings_number":1},"geometry":{"type":"Point","coordinates":[-8.670695,41.151009]}},{"type":"Feature","properties":{"id":86,"year":"16","month":"11","type":2,"ts":0.45,"mega_host_2":"False","mega_host_3":"False","freg":3,"weight":0.028985507246376812,"endereco":"Bairro Bairro Jo\u00e3o do Carmo 14 rc ","entradas_repetidas":3,"host_listings_number":1},"geometry":{"type":"Point","coordinates":[-8.651019,41.149464]}},{"type":"Feature","properties":{"id":87,"year":"23","month":"09","type":3,"ts":0.97,"mega_host_2":"False","mega_host_3":"False","freg":1,"weight":0.0,"endereco":"Rua Rua Ferreira Borges 88  ","entradas_repetidas":1,"host_listings_number":1},"geometry":{"type":"Point","coordinates":[-8.615177,41.142535]}},{"type":"Feature","properties":{"id":88,"year":"22","month":"11","type":1,"ts":0.91,"mega_host_2":"False","mega_host_3":"False","freg":1,"weight":0.043478260869565216,"endereco":"Rua Rua Santa Catarina 555 3 direito","entradas_repetidas":4,"host_listings_number":1},"geometry":{"type":"Point","coordinates":[-8.605397,41.151078]}},{"type":"Feature","properties":{"id":89,"year":"18","month":"10","type":1,"ts":0.6,"mega_host_2":"False","mega_host_3":"False","freg":1,"weight":0.028985507246376812,"endereco":"Rua Rua M\u00e1rtires da Liberdade 234  ","entradas_repetidas":3,"host_listings_number":1},"geometry":{"type":"Point","coordinates":[-8.613589,41.152575]}},{"type":"Feature","properties":{"id":90,"year":"22","month":"10","type":1,"ts":0.91,"mega_host_2":"False","mega_host_3":"False","freg":1,"weight":0.0,"endereco":"Rua Rua Torrinha 322 2\u00ba esq frente","entradas_repetidas":1,"host_listings_number":1},"geometry":{"type":"Point","coordinates":[-8.623464,41.152914]}},{"type":"Feature","properties":{"id":91,"year":"19","month":"07","type":1,"ts":0.66,"mega_host_2":"False","mega_host_3":"False","freg":5,"weight":0.0,"endereco":"Avenida Avenida Parque 162 rch drt","entradas_repetidas":1,"host_listings_number":1},"geometry":{"type":"Point","coordinates":[-8.671811,41.166665]}},{"type":"Feature","properties":{"id":92,"year":"19","month":"06","type":1,"ts":0.65,"mega_host_2":"False","mega_host_3":"False","freg":2,"weight":0.014492753623188406,"endereco":"Avenida Avenida Rodrigues de Freitas 112 rdc ","entradas_repetidas":2,"host_listings_number":1},"geometry":{"type":"Point","coordinates":[-8.597844,41.146052]}},{"type":"Feature","properties":{"id":93,"year":"22","month":"02","type":1,"ts":0.85,"mega_host_2":"False","mega_host_3":"False","freg":1,"weight":0.10144927536231885,"endereco":"Rua Rua S\u00e1 da Bandeira 118 5\u00ba Tras","entradas_repetidas":8,"host_listings_number":1},"geometry":{"type":"Point","coordinates":[-8.608796,41.146999]}},{"type":"Feature","properties":{"id":94,"year":"22","month":"01","type":4,"ts":0.85,"mega_host_2":"False","mega_host_3":"False","freg":1,"weight":0.0,"endereco":"Rua Rua Gon\u00e7alo Crist\u00f3v\u00e3o 12  ","entradas_repetidas":1,"host_listings_number":1},"geometry":{"type":"Point","coordinates":[-8.605312,41.153637]}},{"type":"Feature","properties":{"id":95,"year":"18","month":"09","type":1,"ts":0.59,"mega_host_2":"False","mega_host_3":"False","freg":1,"weight":0.028985507246376812,"endereco":"Rua 31 janeiro 223 2 d","entradas_repetidas":3,"host_listings_number":1},"geometry":{"type":"Point","coordinates":[-8.607431,41.146268]}},{"type":"Feature","properties":{"id":96,"year":"18","month":"09","type":1,"ts":0.59,"mega_host_2":"False","mega_host_3":"False","freg":2,"weight":0.0,"endereco":"Rua Rua Santo Ildefonso 354 1\u00ba Frente","entradas_repetidas":1,"host_listings_number":1},"geometry":{"type":"Point","coordinates":[-8.601674,41.147132]}},{"type":"Feature","properties":{"id":97,"year":"22","month":"12","type":1,"ts":0.92,"mega_host_2":"False","mega_host_3":"False","freg":1,"weight":0.08695652173913043,"endereco":"Rua Rua Santa Catarina 1075 3 T","entradas_repetidas":7,"host_listings_number":1},"geometry":{"type":"Point","coordinates":[-8.604715,41.155768]}},{"type":"Feature","properties":{"id":98,"year":"17","month":"07","type":1,"ts":0.5,"mega_host_2":"False","mega_host_3":"False","freg":2,"weight":0.0,"endereco":"1\u00aa Rua Rua da Alegria 968, habita\u00e7\u00e3o 26 968 2 26","entradas_repetidas":1,"host_listings_number":1},"geometry":{"type":"Point","coordinates":[-8.600517,41.160396]}},{"type":"Feature","properties":{"id":99,"year":"18","month":"10","type":2,"ts":0.6,"mega_host_2":"False","mega_host_3":"False","freg":6,"weight":0.0,"endereco":"Rua Rua Antas 193  ","entradas_repetidas":1,"host_listings_number":1},"geometry":{"type":"Point","coordinates":[-8.591433,41.158287]}},{"type":"Feature","properties":{"id":100,"year":"18","month":"11","type":3,"ts":0.61,"mega_host_2":"False","mega_host_3":"False","freg":6,"weight":0.0,"endereco":"Rua Rua Antas 187 1\u00ba ","entradas_repetidas":1,"host_listings_number":1},"geometry":{"type":"Point","coordinates":[-8.591431,41.158234]}},{"type":"Feature","properties":{"id":101,"year":"17","month":"06","type":1,"ts":0.5,"mega_host_2":"False","mega_host_3":"False","freg":1,"weight":0.014492753623188406,"endereco":"Rua Rua Alegria, 347A 4\u00ba drt","entradas_repetidas":2,"host_listings_number":1},"geometry":{"type":"Point","coordinates":[-8.603888,41.152638]}},{"type":"Feature","properties":{"id":102,"year":"21","month":"01","type":1,"ts":0.77,"mega_host_2":"False","mega_host_3":"False","freg":1,"weight":0.2028985507246377,"endereco":"Rua Rua M\u00e1rtires da Liberdade 122 1\u00ba TrE","entradas_repetidas":15,"host_listings_number":1},"geometry":{"type":"Point","coordinates":[-8.613964,41.151142]}},{"type":"Feature","properties":{"id":103,"year":"18","month":"11","type":1,"ts":0.61,"mega_host_2":"False","mega_host_3":"False","freg":1,"weight":0.0,"endereco":"Rua Rua Bar\u00e3o Forrester 867  ","entradas_repetidas":1,"host_listings_number":1},"geometry":{"type":"Point","coordinates":[-8.620765,41.159614]}},{"type":"Feature","properties":{"id":104,"year":"21","month":"02","type":3,"ts":0.78,"mega_host_2":"False","mega_host_3":"False","freg":3,"weight":0.028985507246376812,"endereco":"Rua Rua J\u00falio Dinis 891 1\u00ba Direito","entradas_repetidas":3,"host_listings_number":1},"geometry":{"type":"Point","coordinates":[-8.628278,41.1564]}},{"type":"Feature","properties":{"id":105,"year":"22","month":"09","type":1,"ts":0.9,"mega_host_2":"False","mega_host_3":"False","freg":1,"weight":0.028985507246376812,"endereco":"Rua Rua Alegria 329 A 2.\u00ba C","entradas_repetidas":3,"host_listings_number":1},"geometry":{"type":"Point","coordinates":[-8.604222,41.151852]}},{"type":"Feature","properties":{"id":106,"year":"20","month":"07","type":1,"ts":0.73,"mega_host_2":"False","mega_host_3":"False","freg":1,"weight":0.043478260869565216,"endereco":"Rua Rua Cam\u00f5es 312 2\u00ba traseiro","entradas_repetidas":4,"host_listings_number":1},"geometry":{"type":"Point","coordinates":[-8.609929,41.154709]}},{"type":"Feature","properties":{"id":107,"year":"22","month":"08","type":1,"ts":0.9,"mega_host_2":"False","mega_host_3":"False","freg":1,"weight":0.043478260869565216,"endereco":"Rua Rua Santa Catarina 520 2 F","entradas_repetidas":4,"host_listings_number":1},"geometry":{"type":"Point","coordinates":[-8.605342,41.150739]}},{"type":"Feature","properties":{"id":108,"year":"18","month":"10","type":2,"ts":0.6,"mega_host_2":"False","mega_host_3":"False","freg":6,"weight":0.0,"endereco":"Rua Rua Antas 195  ","entradas_repetidas":1,"host_listings_number":1},"geometry":{"type":"Point","coordinates":[-8.591516,41.158301]}},{"type":"Feature","properties":{"id":109,"year":"18","month":"10","type":1,"ts":0.6,"mega_host_2":"False","mega_host_3":"False","freg":1,"weight":0.0,"endereco":"Rua Rua Almada 49/59 3 esquerfren","entradas_repetidas":1,"host_listings_number":1},"geometry":{"type":"Point","coordinates":[-8.612227,41.146538]}},{"type":"Feature","properties":{"id":110,"year":"17","month":"06","type":1,"ts":0.5,"mega_host_2":"False","mega_host_3":"False","freg":1,"weight":0.057971014492753624,"endereco":"Rua Rua S\u00e1 da Bandeira 494 1.\u00ba dto","entradas_repetidas":5,"host_listings_number":1},"geometry":{"type":"Point","coordinates":[-8.606839,41.150487]}},{"type":"Feature","properties":{"id":111,"year":"22","month":"08","type":1,"ts":0.9,"mega_host_2":"False","mega_host_3":"False","freg":3,"weight":0.014492753623188406,"endereco":"Rua Rua Maternidade 51 R/C Esquerdo","entradas_repetidas":2,"host_listings_number":1},"geometry":{"type":"Point","coordinates":[-8.621771,41.151473]}},{"type":"Feature","properties":{"id":112,"year":"17","month":"06","type":1,"ts":0.5,"mega_host_2":"False","mega_host_3":"False","freg":3,"weight":0.0,"endereco":"Rua Rua Condominhas 119 1\u00ba dto","entradas_repetidas":1,"host_listings_number":1},"geometry":{"type":"Point","coordinates":[-8.652865,41.149507]}},{"type":"Feature","properties":{"id":113,"year":"22","month":"08","type":1,"ts":0.9,"mega_host_2":"False","mega_host_3":"False","freg":3,"weight":0.014492753623188406,"endereco":"Rua Rua Vilar 210 3\u00ba B","entradas_repetidas":2,"host_listings_number":1},"geometry":{"type":"Point","coordinates":[-8.628492,41.151161]}},{"type":"Feature","properties":{"id":114,"year":"22","month":"08","type":2,"ts":0.89,"mega_host_2":"False","mega_host_3":"False","freg":6,"weight":0.0,"endereco":"Rua Rua Justino Teixeira, casa 15 137  ","entradas_repetidas":1,"host_listings_number":1},"geometry":{"type":"Point","coordinates":[-8.58702,41.1503]}},{"type":"Feature","properties":{"id":115,"year":"22","month":"09","type":1,"ts":0.9,"mega_host_2":"False","mega_host_3":"False","freg":1,"weight":0.057971014492753624,"endereco":"Rua Rua Santo Ildefonso 74 2 Traseiras","entradas_repetidas":5,"host_listings_number":1},"geometry":{"type":"Point","coordinates":[-8.605364,41.146186]}},{"type":"Feature","properties":{"id":116,"year":"17","month":"05","type":1,"ts":0.49,"mega_host_2":"False","mega_host_3":"False","freg":1,"weight":0.043478260869565216,"endereco":"Rua Rua Breiner 97 R/C  Frente","entradas_repetidas":4,"host_listings_number":1},"geometry":{"type":"Point","coordinates":[-8.618744,41.151257]}},{"type":"Feature","properties":{"id":117,"year":"17","month":"05","type":1,"ts":0.49,"mega_host_2":"False","mega_host_3":"False","freg":1,"weight":0.10144927536231885,"endereco":"Pra\u00e7a Pra\u00e7a Rep\u00fablica 184 3\u00ba Tras","entradas_repetidas":8,"host_listings_number":1},"geometry":{"type":"Point","coordinates":[-8.611872,41.154296]}},{"type":"Feature","properties":{"id":118,"year":"18","month":"07","type":2,"ts":0.58,"mega_host_2":"False","mega_host_3":"False","freg":6,"weight":0.0,"endereco":"Rua Miraflor 58  ","entradas_repetidas":1,"host_listings_number":1},"geometry":{"type":"Point","coordinates":[-8.587733,41.147864]}},{"type":"Feature","properties":{"id":119,"year":"22","month":"08","type":1,"ts":0.89,"mega_host_2":"False","mega_host_3":"False","freg":1,"weight":0.057971014492753624,"endereco":"Pra\u00e7a Pra\u00e7a Rep\u00fablica 189 2 Frente","entradas_repetidas":5,"host_listings_number":1},"geometry":{"type":"Point","coordinates":[-8.611874,41.154239]}},{"type":"Feature","properties":{"id":120,"year":"22","month":"11","type":2,"ts":0.91,"mega_host_2":"False","mega_host_3":"False","freg":1,"weight":0.0,"endereco":"Rua Rua Monte Cativo 28  ","entradas_repetidas":1,"host_listings_number":1},"geometry":{"type":"Point","coordinates":[-8.617074,41.159576]}},{"type":"Feature","properties":{"id":121,"year":"17","month":"06","type":1,"ts":0.5,"mega_host_2":"False","mega_host_3":"False","freg":1,"weight":0.028985507246376812,"endereco":"Rua Faria Guimar\u00e3es 240 3 Traseiras","entradas_repetidas":3,"host_listings_number":1},"geometry":{"type":"Point","coordinates":[-8.608104,41.159407]}},{"type":"Feature","properties":{"id":122,"year":"17","month":"06","type":3,"ts":0.5,"mega_host_2":"False","mega_host_3":"False","freg":1,"weight":0.0,"endereco":"Rua Rua O Com\u00e9rcio do Porto 85  ","entradas_repetidas":1,"host_listings_number":1},"geometry":{"type":"Point","coordinates":[-8.616995,41.141409]}},{"type":"Feature","properties":{"id":123,"year":"21","month":"03","type":1,"ts":0.78,"mega_host_2":"False","mega_host_3":"False","freg":2,"weight":0.043478260869565216,"endereco":"Rua Rua Morgado Mateus 53 1 traseiro","entradas_repetidas":4,"host_listings_number":1},"geometry":{"type":"Point","coordinates":[-8.601042,41.146776]}},{"type":"Feature","properties":{"id":124,"year":"22","month":"10","type":1,"ts":0.91,"mega_host_2":"False","mega_host_3":"False","freg":1,"weight":0.028985507246376812,"endereco":"Rua Rua Alegria 329A 1\u00ba Esquerdo","entradas_repetidas":3,"host_listings_number":1},"geometry":{"type":"Point","coordinates":[-8.604222,41.151852]}},{"type":"Feature","properties":{"id":125,"year":"82","month":"07","type":3,"ts":0,"mega_host_2":"False","mega_host_3":"False","freg":6,"weight":0.0,"endereco":"Rua Justino Teixeira 47  ","entradas_repetidas":1,"host_listings_number":1},"geometry":{"type":"Point","coordinates":[-8.585697,41.150937]}},{"type":"Feature","properties":{"id":126,"year":"20","month":"06","type":2,"ts":0.73,"mega_host_2":"False","mega_host_3":"False","freg":1,"weight":0.0,"endereco":"Rua Rua Antero de Quental 241  ","entradas_repetidas":1,"host_listings_number":1},"geometry":{"type":"Point","coordinates":[-8.61175,41.160324]}},{"type":"Feature","properties":{"id":127,"year":"17","month":"06","type":1,"ts":0.5,"mega_host_2":"False","mega_host_3":"False","freg":7,"weight":0.0,"endereco":"Rua Rua Professor Ant\u00e3o de Almeida Garrett 76 3 H4","entradas_repetidas":1,"host_listings_number":1},"geometry":{"type":"Point","coordinates":[-8.635105,41.172174]}},{"type":"Feature","properties":{"id":128,"year":"20","month":"07","type":2,"ts":0.73,"mega_host_2":"False","mega_host_3":"False","freg":6,"weight":0.014492753623188406,"endereco":"Rua Rua Justino Teixeira, 137 8  ","entradas_repetidas":2,"host_listings_number":1},"geometry":{"type":"Point","coordinates":[-8.58648,41.150275]}},{"type":"Feature","properties":{"id":129,"year":"17","month":"06","type":1,"ts":0.49,"mega_host_2":"False","mega_host_3":"False","freg":1,"weight":0.057971014492753624,"endereco":"Rua Rua Fernandes Tom\u00e1s 896/898 3\u00ba.  Frac\u00e7\u00e3o J","entradas_repetidas":5,"host_listings_number":1},"geometry":{"type":"Point","coordinates":[-8.609009,41.150596]}},{"type":"Feature","properties":{"id":130,"year":"18","month":"07","type":1,"ts":0.58,"mega_host_2":"False","mega_host_3":"False","freg":1,"weight":0.11594202898550725,"endereco":"Rua Rua Gon\u00e7alo Crist\u00f3v\u00e3o, 332 - 2\u00ba Traseiras   ","entradas_repetidas":9,"host_listings_number":1},"geometry":{"type":"Point","coordinates":[-8.611107,41.153779]}},{"type":"Feature","properties":{"id":131,"year":"20","month":"07","type":1,"ts":0.74,"mega_host_2":"False","mega_host_3":"False","freg":1,"weight":0.0,"endereco":"Travessa Travessa Liceiras   ","entradas_repetidas":1,"host_listings_number":1},"geometry":{"type":"Point","coordinates":[-8.609508,41.150419]}},{"type":"Feature","properties":{"id":132,"year":"18","month":"07","type":1,"ts":0.58,"mega_host_2":"False","mega_host_3":"False","freg":3,"weight":0.014492753623188406,"endereco":"Rua Rua Campo Alegre, 1502 - Apartamento 7.4   ","entradas_repetidas":2,"host_listings_number":1},"geometry":{"type":"Point","coordinates":[-8.645963,41.154513]}},{"type":"Feature","properties":{"id":133,"year":"17","month":"07","type":1,"ts":0.5,"mega_host_2":"False","mega_host_3":"False","freg":1,"weight":0.07246376811594203,"endereco":"Rua Rua Almada 392 CAVE ","entradas_repetidas":6,"host_listings_number":1},"geometry":{"type":"Point","coordinates":[-8.612029,41.150131]}},{"type":"Feature","properties":{"id":134,"year":"18","month":"07","type":1,"ts":0.58,"mega_host_2":"False","mega_host_3":"False","freg":2,"weight":0.014492753623188406,"endereco":"3\u00aa Rua Santos Pousada 389 3 3.1","entradas_repetidas":2,"host_listings_number":1},"geometry":{"type":"Point","coordinates":[-8.60001,41.152265]}},{"type":"Feature","properties":{"id":135,"year":"17","month":"06","type":1,"ts":0.5,"mega_host_2":"False","mega_host_3":"False","freg":5,"weight":0.0,"endereco":"Rua Rua Alfredo Keil 257-A 1\u00ba Dto,.","entradas_repetidas":1,"host_listings_number":1},"geometry":{"type":"Point","coordinates":[-8.667314,41.155228]}},{"type":"Feature","properties":{"id":136,"year":"20","month":"01","type":1,"ts":0.69,"mega_host_2":"False","mega_host_3":"False","freg":1,"weight":0.014492753623188406,"endereco":"Rua Rua Cedofeita 187 3\u00ba Traseiras","entradas_repetidas":2,"host_listings_number":1},"geometry":{"type":"Point","coordinates":[-8.617249,41.15078]}},{"type":"Feature","properties":{"id":137,"year":"17","month":"04","type":2,"ts":0.49,"mega_host_2":"False","mega_host_3":"False","freg":2,"weight":0.0,"endereco":"Rua Rua Santos Pousada   ","entradas_repetidas":1,"host_listings_number":1},"geometry":{"type":"Point","coordinates":[-8.599685,41.153928]}},{"type":"Feature","properties":{"id":138,"year":"17","month":"06","type":1,"ts":0.5,"mega_host_2":"False","mega_host_3":"False","freg":1,"weight":0.08695652173913043,"endereco":"Rua Duque de Loul\u00e9 205 2.3 ","entradas_repetidas":7,"host_listings_number":1},"geometry":{"type":"Point","coordinates":[-8.604761,41.144746]}},{"type":"Feature","properties":{"id":139,"year":"17","month":"06","type":1,"ts":0.5,"mega_host_2":"False","mega_host_3":"False","freg":1,"weight":0.0,"endereco":"Rua Rodrigues Lopo 16 2.2 ","entradas_repetidas":1,"host_listings_number":1},"geometry":{"type":"Point","coordinates":[-8.627122,41.154353]}},{"type":"Feature","properties":{"id":140,"year":"20","month":"12","type":1,"ts":0.77,"mega_host_2":"False","mega_host_3":"False","freg":1,"weight":0.08695652173913043,"endereco":"Rua Rua do Loureiro 140A 3\u00ba Tr\u00e1s","entradas_repetidas":7,"host_listings_number":1},"geometry":{"type":"Point","coordinates":[-8.609636,41.144709]}},{"type":"Feature","properties":{"id":141,"year":"17","month":"06","type":3,"ts":0.5,"mega_host_2":"False","mega_host_3":"False","freg":1,"weight":0.0,"endereco":"Avenida Avenida Boavista 601  ","entradas_repetidas":1,"host_listings_number":1},"geometry":{"type":"Point","coordinates":[-8.630827,41.158081]}},{"type":"Feature","properties":{"id":142,"year":"22","month":"10","type":5,"ts":0.91,"mega_host_2":"False","mega_host_3":"False","freg":2,"weight":0.0,"endereco":"Rua Rua Doze Casas 51  ","entradas_repetidas":1,"host_listings_number":1},"geometry":{"type":"Point","coordinates":[-8.60269,41.157376]}},{"type":"Feature","properties":{"id":143,"year":"17","month":"06","type":1,"ts":0.5,"mega_host_2":"False","mega_host_3":"False","freg":1,"weight":0.17391304347826086,"endereco":"Rua Rua Trindade Coelho 10 1 FE","entradas_repetidas":13,"host_listings_number":1},"geometry":{"type":"Point","coordinates":[-8.611764,41.145047]}},{"type":"Feature","properties":{"id":144,"year":"20","month":"07","type":1,"ts":0.73,"mega_host_2":"False","mega_host_3":"False","freg":1,"weight":0.07246376811594203,"endereco":"Rua Rua Almada 515 1.\u00ba tr\u00e1s","entradas_repetidas":6,"host_listings_number":1},"geometry":{"type":"Point","coordinates":[-8.612078,41.151861]}},{"type":"Feature","properties":{"id":145,"year":"22","month":"07","type":1,"ts":0.89,"mega_host_2":"False","mega_host_3":"False","freg":1,"weight":0.0,"endereco":"Rua Rua Firmeza 121-123 RC ","entradas_repetidas":1,"host_listings_number":1},"geometry":{"type":"Point","coordinates":[-8.602813,41.150947]}},{"type":"Feature","properties":{"id":146,"year":"22","month":"08","type":1,"ts":0.89,"mega_host_2":"False","mega_host_3":"False","freg":1,"weight":0.10144927536231885,"endereco":"Largo Largo S\u00e3o Domingos 77 4.\u00ba Frente","entradas_repetidas":8,"host_listings_number":1},"geometry":{"type":"Point","coordinates":[-8.614527,41.143231]}},{"type":"Feature","properties":{"id":147,"year":"17","month":"06","type":1,"ts":0.5,"mega_host_2":"False","mega_host_3":"False","freg":1,"weight":0.0,"endereco":"Rua Rua Tom\u00e1s Gonzaga, n\u00ba 68 e 70   ","entradas_repetidas":1,"host_listings_number":1},"geometry":{"type":"Point","coordinates":[-8.618419,41.1422]}},{"type":"Feature","properties":{"id":148,"year":"22","month":"10","type":2,"ts":0.91,"mega_host_2":"False","mega_host_3":"False","freg":1,"weight":0.0,"endereco":"Travessa Travessa das Taipas 2  ","entradas_repetidas":1,"host_listings_number":1},"geometry":{"type":"Point","coordinates":[-8.616862,41.143769]}},{"type":"Feature","properties":{"id":149,"year":"18","month":"10","type":2,"ts":0.6,"mega_host_2":"False","mega_host_3":"False","freg":1,"weight":0.0,"endereco":"Rua Rua Moreira de Assun\u00e7\u00e3o 53  ","entradas_repetidas":1,"host_listings_number":1},"geometry":{"type":"Point","coordinates":[-8.607972,41.158072]}},{"type":"Feature","properties":{"id":150,"year":"20","month":"11","type":1,"ts":0.76,"mega_host_2":"False","mega_host_3":"False","freg":1,"weight":0.08695652173913043,"endereco":"Rua Rua S\u00e3o Jo\u00e3o 98 2 tras","entradas_repetidas":7,"host_listings_number":1},"geometry":{"type":"Point","coordinates":[-8.613807,41.142247]}},{"type":"Feature","properties":{"id":151,"year":"18","month":"10","type":5,"ts":0.6,"mega_host_2":"False","mega_host_3":"False","freg":2,"weight":0.0,"endereco":"Rua Rua Conde Ferreira 194 RC ","entradas_repetidas":1,"host_listings_number":1},"geometry":{"type":"Point","coordinates":[-8.598353,41.147094]}},{"type":"Feature","properties":{"id":152,"year":"17","month":"07","type":1,"ts":0.5,"mega_host_2":"False","mega_host_3":"False","freg":1,"weight":0.08695652173913043,"endereco":"Rua Rua Santa Catarina 951 5\u00ba D","entradas_repetidas":7,"host_listings_number":1},"geometry":{"type":"Point","coordinates":[-8.604799,41.154583]}},{"type":"Feature","properties":{"id":153,"year":"17","month":"10","type":3,"ts":0.52,"mega_host_2":"False","mega_host_3":"False","freg":1,"weight":0.0,"endereco":"Rua Miguel Bombarda 269 1 ","entradas_repetidas":1,"host_listings_number":1},"geometry":{"type":"Point","coordinates":[-8.620152,41.149687]}},{"type":"Feature","properties":{"id":154,"year":"17","month":"07","type":1,"ts":0.5,"mega_host_2":"False","mega_host_3":"False","freg":1,"weight":0.028985507246376812,"endereco":"Rua Rua C\u00f3nego Ferreira Pinto 75 2\u00ba Esq.\u00ba","entradas_repetidas":3,"host_listings_number":1},"geometry":{"type":"Point","coordinates":[-8.626749,41.160562]}},{"type":"Feature","properties":{"id":155,"year":"18","month":"11","type":1,"ts":0.6,"mega_host_2":"False","mega_host_3":"False","freg":1,"weight":0.07246376811594203,"endereco":"Rua Rua Santa Catarina 818 1\u00b0 Traseiras","entradas_repetidas":6,"host_listings_number":1},"geometry":{"type":"Point","coordinates":[-8.604673,41.153402]}},{"type":"Feature","properties":{"id":156,"year":"18","month":"10","type":1,"ts":0.6,"mega_host_2":"False","mega_host_3":"False","freg":1,"weight":0.0,"endereco":"Travessa Travessa Salgueiros 77 4 3","entradas_repetidas":1,"host_listings_number":1},"geometry":{"type":"Point","coordinates":[-8.612861,41.159422]}},{"type":"Feature","properties":{"id":157,"year":"18","month":"09","type":1,"ts":0.59,"mega_host_2":"False","mega_host_3":"False","freg":1,"weight":0.10144927536231885,"endereco":"Rua Saraiva de Carvalho 12 H 4.1 ","entradas_repetidas":8,"host_listings_number":1},"geometry":{"type":"Point","coordinates":[-8.610058,41.143178]}},{"type":"Feature","properties":{"id":158,"year":"20","month":"08","type":2,"ts":0.74,"mega_host_2":"False","mega_host_3":"False","freg":5,"weight":0.014492753623188406,"endereco":"Rua Rua Marechal Saldanha 948  ","entradas_repetidas":2,"host_listings_number":1},"geometry":{"type":"Point","coordinates":[-8.683019,41.162368]}},{"type":"Feature","properties":{"id":159,"year":"18","month":"10","type":1,"ts":0.6,"mega_host_2":"False","mega_host_3":"False","freg":1,"weight":0.07246376811594203,"endereco":"Rua Rua Bonjardim 306 2\u00ba Tras.","entradas_repetidas":6,"host_listings_number":1},"geometry":{"type":"Point","coordinates":[-8.609368,41.148809]}},{"type":"Feature","properties":{"id":160,"year":"18","month":"10","type":3,"ts":0.6,"mega_host_2":"False","mega_host_3":"False","freg":2,"weight":0.0,"endereco":"Rua Rua Coutinho de Azevedo 312 R\u00e9s-Ch\u00e3o ","entradas_repetidas":1,"host_listings_number":1},"geometry":{"type":"Point","coordinates":[-8.597237,41.158682]}},{"type":"Feature","properties":{"id":161,"year":"20","month":"10","type":1,"ts":0.75,"mega_host_2":"False","mega_host_3":"False","freg":1,"weight":0.028985507246376812,"endereco":"Rua Rua Nove de Julho 130 1\u00ba Esq","entradas_repetidas":3,"host_listings_number":1},"geometry":{"type":"Point","coordinates":[-8.623621,41.162787]}},{"type":"Feature","properties":{"id":162,"year":"18","month":"10","type":1,"ts":0.6,"mega_host_2":"False","mega_host_3":"False","freg":2,"weight":0.0,"endereco":"Avenida Avenida Rodrigues de Freitas 121 1\u00ba dto frt","entradas_repetidas":1,"host_listings_number":1},"geometry":{"type":"Point","coordinates":[-8.598039,41.145813]}},{"type":"Feature","properties":{"id":163,"year":"17","month":"07","type":1,"ts":0.5,"mega_host_2":"False","mega_host_3":"False","freg":1,"weight":0.07246376811594203,"endereco":"Rua Rua do Almada 392 rc traseiras","entradas_repetidas":6,"host_listings_number":1},"geometry":{"type":"Point","coordinates":[-8.612029,41.150131]}},{"type":"Feature","properties":{"id":164,"year":"18","month":"10","type":1,"ts":0.6,"mega_host_2":"False","mega_host_3":"False","freg":1,"weight":0.014492753623188406,"endereco":"1\u00aa Rua 31 de Janeiro 163 1\u00ba T","entradas_repetidas":2,"host_listings_number":1},"geometry":{"type":"Point","coordinates":[-8.608136,41.146221]}},{"type":"Feature","properties":{"id":165,"year":"20","month":"11","type":3,"ts":0.76,"mega_host_2":"False","mega_host_3":"False","freg":1,"weight":0.0,"endereco":"Rua Rua Mouzinho da Silveira 74/80  ","entradas_repetidas":1,"host_listings_number":1},"geometry":{"type":"Point","coordinates":[-8.614257,41.142152]}},{"type":"Feature","properties":{"id":166,"year":"23","month":"02","type":1,"ts":0.93,"mega_host_2":"False","mega_host_3":"False","freg":1,"weight":0.0,"endereco":"Rua Rua Gl\u00f3ria 36 1\u00ba ","entradas_repetidas":1,"host_listings_number":1},"geometry":{"type":"Point","coordinates":[-8.613695,41.158004]}},{"type":"Feature","properties":{"id":167,"year":"17","month":"07","type":3,"ts":0.5,"mega_host_2":"False","mega_host_3":"False","freg":4,"weight":0.0,"endereco":"Rua Lindo Vale 417  ","entradas_repetidas":1,"host_listings_number":1},"geometry":{"type":"Point","coordinates":[-8.601106,41.164855]}},{"type":"Feature","properties":{"id":168,"year":"17","month":"07","type":1,"ts":0.5,"mega_host_2":"False","mega_host_3":"False","freg":1,"weight":0.07246376811594203,"endereco":"Rua Rua Almada 419 2\u00ba Tras ","entradas_repetidas":6,"host_listings_number":1},"geometry":{"type":"Point","coordinates":[-8.612116,41.150782]}},{"type":"Feature","properties":{"id":169,"year":"17","month":"07","type":1,"ts":0.5,"mega_host_2":"False","mega_host_3":"False","freg":1,"weight":0.17391304347826086,"endereco":"Rua Rua Trindade Coelho 10 2\u00ba Frente Esq","entradas_repetidas":13,"host_listings_number":1},"geometry":{"type":"Point","coordinates":[-8.611764,41.145047]}},{"type":"Feature","properties":{"id":170,"year":"22","month":"10","type":3,"ts":0.91,"mega_host_2":"False","mega_host_3":"False","freg":1,"weight":0.0,"endereco":"Passeio Passeio Fontainhas 40-42  ","entradas_repetidas":1,"host_listings_number":1},"geometry":{"type":"Point","coordinates":[-8.603044,41.142736]}},{"type":"Feature","properties":{"id":171,"year":"20","month":"07","type":1,"ts":0.73,"mega_host_2":"False","mega_host_3":"False","freg":2,"weight":0.014492753623188406,"endereco":"Avenida Avenida Fern\u00e3o de Magalh\u00e3es 646 1\u00ba F","entradas_repetidas":2,"host_listings_number":1},"geometry":{"type":"Point","coordinates":[-8.595,41.155477]}},{"type":"Feature","properties":{"id":172,"year":"17","month":"07","type":1,"ts":0.5,"mega_host_2":"False","mega_host_3":"False","freg":1,"weight":0.0,"endereco":"Rua Rua Breiner 442 2 B-Frente","entradas_repetidas":1,"host_listings_number":1},"geometry":{"type":"Point","coordinates":[-8.622683,41.150378]}},{"type":"Feature","properties":{"id":173,"year":"17","month":"06","type":1,"ts":0.5,"mega_host_2":"False","mega_host_3":"False","freg":1,"weight":0.014492753623188406,"endereco":"Rua Rua Miguel Bombarda 194 1\u00ba ESQ","entradas_repetidas":2,"host_listings_number":1},"geometry":{"type":"Point","coordinates":[-8.619213,41.149911]}},{"type":"Feature","properties":{"id":174,"year":"17","month":"06","type":1,"ts":0.5,"mega_host_2":"False","mega_host_3":"False","freg":2,"weight":0.014492753623188406,"endereco":"Rua Rua Duque Terceira 141 0 AP 001","entradas_repetidas":2,"host_listings_number":1},"geometry":{"type":"Point","coordinates":[-8.598225,41.145223]}},{"type":"Feature","properties":{"id":175,"year":"22","month":"08","type":1,"ts":0.89,"mega_host_2":"False","mega_host_3":"False","freg":2,"weight":0.057971014492753624,"endereco":"Rua Rua Barros Lima 858 R/C  Tras - B","entradas_repetidas":5,"host_listings_number":1},"geometry":{"type":"Point","coordinates":[-8.595137,41.154025]}},{"type":"Feature","properties":{"id":176,"year":"17","month":"06","type":1,"ts":0.5,"mega_host_2":"False","mega_host_3":"False","freg":3,"weight":0.07246376811594203,"endereco":"Rua Rua Piedade 36 11 D","entradas_repetidas":6,"host_listings_number":1},"geometry":{"type":"Point","coordinates":[-8.628439,41.151508]}},{"type":"Feature","properties":{"id":177,"year":"22","month":"07","type":1,"ts":0.89,"mega_host_2":"False","mega_host_3":"False","freg":1,"weight":0.0,"endereco":"Rua dos Caldeireiros 175 3\u00ba/4\u00ba ","entradas_repetidas":1,"host_listings_number":1},"geometry":{"type":"Point","coordinates":[-8.613925,41.145104]}},{"type":"Feature","properties":{"id":178,"year":"18","month":"07","type":1,"ts":0.58,"mega_host_2":"False","mega_host_3":"False","freg":4,"weight":0.0,"endereco":"Rua Rua Professor Joaquim Bastos 102 5 C","entradas_repetidas":1,"host_listings_number":1},"geometry":{"type":"Point","coordinates":[-8.611396,41.169089]}},{"type":"Feature","properties":{"id":179,"year":"17","month":"06","type":1,"ts":0.5,"mega_host_2":"False","mega_host_3":"False","freg":1,"weight":0.08695652173913043,"endereco":"Rua Rua Gon\u00e7alo Crist\u00f3v\u00e3o 198 5\u00ba AP 15","entradas_repetidas":7,"host_listings_number":1},"geometry":{"type":"Point","coordinates":[-8.608598,41.153678]}},{"type":"Feature","properties":{"id":180,"year":"17","month":"06","type":1,"ts":0.5,"mega_host_2":"False","mega_host_3":"False","freg":1,"weight":0.028985507246376812,"endereco":"Rua Rua Alegria 317 1\u00ba ","entradas_repetidas":3,"host_listings_number":1},"geometry":{"type":"Point","coordinates":[-8.604322,41.151624]}},{"type":"Feature","properties":{"id":181,"year":"18","month":"07","type":1,"ts":0.58,"mega_host_2":"False","mega_host_3":"False","freg":1,"weight":0.2318840579710145,"endereco":"Rua Santo Ildefonso 231 3 frt -G ","entradas_repetidas":17,"host_listings_number":1},"geometry":{"type":"Point","coordinates":[-8.603313,41.146791]}},{"type":"Feature","properties":{"id":182,"year":"22","month":"08","type":1,"ts":0.89,"mega_host_2":"False","mega_host_3":"False","freg":7,"weight":0.057971014492753624,"endereco":"Rua Rua 5 de Outubro N 502-504 1 ","entradas_repetidas":5,"host_listings_number":1},"geometry":{"type":"Point","coordinates":[-8.63385,41.161298]}},{"type":"Feature","properties":{"id":183,"year":"22","month":"08","type":1,"ts":0.89,"mega_host_2":"False","mega_host_3":"False","freg":3,"weight":0.057971014492753624,"endereco":"Rua Rua Gon\u00e7alo Sampaio 124 1 103","entradas_repetidas":5,"host_listings_number":1},"geometry":{"type":"Point","coordinates":[-8.631232,41.153734]}},{"type":"Feature","properties":{"id":184,"year":"22","month":"08","type":1,"ts":0.89,"mega_host_2":"False","mega_host_3":"False","freg":1,"weight":0.07246376811594203,"endereco":"Passeio Passeio S\u00e3o L\u00e1zaro 46 RC TRASEIRAS","entradas_repetidas":6,"host_listings_number":1},"geometry":{"type":"Point","coordinates":[-8.602255,41.146394]}},{"type":"Feature","properties":{"id":185,"year":"22","month":"07","type":1,"ts":0.89,"mega_host_2":"False","mega_host_3":"False","freg":1,"weight":0.11594202898550725,"endereco":"Rua Rua Almada 619 2 TRas dto","entradas_repetidas":9,"host_listings_number":1},"geometry":{"type":"Point","coordinates":[-8.612064,41.152906]}},{"type":"Feature","properties":{"id":186,"year":"22","month":"11","type":1,"ts":0.91,"mega_host_2":"False","mega_host_3":"False","freg":1,"weight":0.043478260869565216,"endereco":"Rua Rua Almada 596 -1 ","entradas_repetidas":4,"host_listings_number":1},"geometry":{"type":"Point","coordinates":[-8.611926,41.152686]}},{"type":"Feature","properties":{"id":187,"year":"17","month":"06","type":3,"ts":0.5,"mega_host_2":"False","mega_host_3":"False","freg":1,"weight":0.0,"endereco":"Rua da Constitui\u00e7\u00e3o 1050  ","entradas_repetidas":1,"host_listings_number":1},"geometry":{"type":"Point","coordinates":[-8.61059,41.162743]}},{"type":"Feature","properties":{"id":188,"year":"17","month":"06","type":1,"ts":0.5,"mega_host_2":"False","mega_host_3":"False","freg":3,"weight":0.0,"endereco":"Rua Jo\u00e3o Batista Lavanha 22 1 esq","entradas_repetidas":1,"host_listings_number":1},"geometry":{"type":"Point","coordinates":[-8.656553,41.149038]}},{"type":"Feature","properties":{"id":189,"year":"18","month":"10","type":1,"ts":0.6,"mega_host_2":"False","mega_host_3":"False","freg":1,"weight":0.17391304347826086,"endereco":"1\u00aa Rua Trindade Coelho 10 C2 2  Fr Dt","entradas_repetidas":13,"host_listings_number":1},"geometry":{"type":"Point","coordinates":[-8.611764,41.145047]}},{"type":"Feature","properties":{"id":190,"year":"17","month":"07","type":1,"ts":0.5,"mega_host_2":"False","mega_host_3":"False","freg":1,"weight":0.028985507246376812,"endereco":"Rua Rua Cam\u00f5es 21 3\u00ba DIREITO","entradas_repetidas":3,"host_listings_number":1},"geometry":{"type":"Point","coordinates":[-8.610214,41.152137]}},{"type":"Feature","properties":{"id":191,"year":"17","month":"07","type":1,"ts":0.5,"mega_host_2":"False","mega_host_3":"False","freg":1,"weight":0.028985507246376812,"endereco":"Rua Rua Guedes de Azevedo 119 5 Ap 1","entradas_repetidas":3,"host_listings_number":1},"geometry":{"type":"Point","coordinates":[-8.606471,41.152121]}},{"type":"Feature","properties":{"id":192,"year":"17","month":"07","type":1,"ts":0.5,"mega_host_2":"False","mega_host_3":"False","freg":1,"weight":0.0,"endereco":"Rua Rua Bonjardim 658 4 ","entradas_repetidas":1,"host_listings_number":1},"geometry":{"type":"Point","coordinates":[-8.608058,41.152484]}},{"type":"Feature","properties":{"id":193,"year":"17","month":"06","type":1,"ts":0.5,"mega_host_2":"False","mega_host_3":"False","freg":1,"weight":0.07246376811594203,"endereco":"Rua Rua Almada 419 3.\u00ba Tras.","entradas_repetidas":6,"host_listings_number":1},"geometry":{"type":"Point","coordinates":[-8.612116,41.150782]}},{"type":"Feature","properties":{"id":194,"year":"17","month":"07","type":1,"ts":0.5,"mega_host_2":"False","mega_host_3":"False","freg":6,"weight":0.014492753623188406,"endereco":"Avenida Avenida Paiva Couceiro 760 1 H6","entradas_repetidas":2,"host_listings_number":1},"geometry":{"type":"Point","coordinates":[-8.586891,41.143264]}},{"type":"Feature","properties":{"id":195,"year":"22","month":"07","type":1,"ts":0.89,"mega_host_2":"False","mega_host_3":"False","freg":1,"weight":0.043478260869565216,"endereco":"Rua Rua Taipas 19 4\u00ba ","entradas_repetidas":4,"host_listings_number":1},"geometry":{"type":"Point","coordinates":[-8.617463,41.14288]}},{"type":"Feature","properties":{"id":196,"year":"17","month":"07","type":2,"ts":0.5,"mega_host_2":"False","mega_host_3":"False","freg":2,"weight":0.014492753623188406,"endereco":"Rua Rua Bairro do Bom Retiro 4  ","entradas_repetidas":2,"host_listings_number":1},"geometry":{"type":"Point","coordinates":[-8.593201,41.146714]}},{"type":"Feature","properties":{"id":197,"year":"22","month":"06","type":1,"ts":0.88,"mega_host_2":"False","mega_host_3":"False","freg":1,"weight":0.0,"endereco":"Rua Rua Aldas 27A  ","entradas_repetidas":1,"host_listings_number":1},"geometry":{"type":"Point","coordinates":[-8.612706,41.142755]}},{"type":"Feature","properties":{"id":198,"year":"22","month":"07","type":1,"ts":0.88,"mega_host_2":"False","mega_host_3":"False","freg":2,"weight":0.34782608695652173,"endereco":"Rua Rua Senhora Dores 122 1 M","entradas_repetidas":25,"host_listings_number":1},"geometry":{"type":"Point","coordinates":[-8.601319,41.145084]}},{"type":"Feature","properties":{"id":199,"year":"22","month":"06","type":1,"ts":0.88,"mega_host_2":"False","mega_host_3":"False","freg":2,"weight":0.057971014492753624,"endereco":"Avenida Avenida Fern\u00e3o de Magalh\u00e3es 210 1 107","entradas_repetidas":5,"host_listings_number":1},"geometry":{"type":"Point","coordinates":[-8.596991,41.151981]}},{"type":"Feature","properties":{"id":200,"year":"19","month":"07","type":1,"ts":0.66,"mega_host_2":"False","mega_host_3":"False","freg":2,"weight":0.11594202898550725,"endereco":"Rua Rua Coelho Neto 67 e 69  ","entradas_repetidas":9,"host_listings_number":1},"geometry":{"type":"Point","coordinates":[-8.600983,41.148208]}},{"type":"Feature","properties":{"id":201,"year":"16","month":"10","type":1,"ts":0.45,"mega_host_2":"False","mega_host_3":"False","freg":7,"weight":0.0,"endereco":"Rua Rua Doutor Marques de Carvalho 53 1.\u00ba  Esq. Tras.","entradas_repetidas":1,"host_listings_number":1},"geometry":{"type":"Point","coordinates":[-8.64445,41.162192]}},{"type":"Feature","properties":{"id":202,"year":"21","month":"01","type":3,"ts":0.77,"mega_host_2":"False","mega_host_3":"False","freg":1,"weight":0.0,"endereco":"Rua Rua Mouzinho da Silveira 228  ","entradas_repetidas":1,"host_listings_number":1},"geometry":{"type":"Point","coordinates":[-8.612635,41.143669]}},{"type":"Feature","properties":{"id":203,"year":"18","month":"06","type":1,"ts":0.57,"mega_host_2":"False","mega_host_3":"False","freg":1,"weight":0.028985507246376812,"endereco":"Travessa Travessa Figueiroa 24  sala 3","entradas_repetidas":3,"host_listings_number":1},"geometry":{"type":"Point","coordinates":[-8.61867,41.155469]}},{"type":"Feature","properties":{"id":204,"year":"22","month":"07","type":1,"ts":0.89,"mega_host_2":"False","mega_host_3":"False","freg":4,"weight":0.0,"endereco":"Rua Rua Faria Guimar\u00e3es 764 5 Prumada 6","entradas_repetidas":1,"host_listings_number":1},"geometry":{"type":"Point","coordinates":[-8.606229,41.163941]}},{"type":"Feature","properties":{"id":205,"year":"18","month":"06","type":1,"ts":0.57,"mega_host_2":"False","mega_host_3":"False","freg":1,"weight":0.014492753623188406,"endereco":"Rua Rua Belomonte 86/88  ","entradas_repetidas":2,"host_listings_number":1},"geometry":{"type":"Point","coordinates":[-8.616539,41.142616]}},{"type":"Feature","properties":{"id":206,"year":"16","month":"10","type":1,"ts":0.44,"mega_host_2":"False","mega_host_3":"False","freg":1,"weight":0.0,"endereco":"Rua Rua Boavista 297 4.\u00ba ","entradas_repetidas":1,"host_listings_number":1},"geometry":{"type":"Point","coordinates":[-8.616848,41.155822]}},{"type":"Feature","properties":{"id":207,"year":"16","month":"11","type":1,"ts":0.45,"mega_host_2":"False","mega_host_3":"False","freg":2,"weight":0.014492753623188406,"endereco":"Rua Rua Alegria 1012 2.\u00ba Tras.","entradas_repetidas":2,"host_listings_number":1},"geometry":{"type":"Point","coordinates":[-8.600292,41.161081]}},{"type":"Feature","properties":{"id":208,"year":"17","month":"05","type":1,"ts":0.49,"mega_host_2":"False","mega_host_3":"False","freg":1,"weight":0.014492753623188406,"endereco":"1\u00aa Rua Rua Brito Capelo 108 4\u00ba Esq.","entradas_repetidas":2,"host_listings_number":1},"geometry":{"type":"Point","coordinates":[-8.619697,41.162148]}},{"type":"Feature","properties":{"id":209,"year":"22","month":"06","type":1,"ts":0.88,"mega_host_2":"False","mega_host_3":"False","freg":2,"weight":0.043478260869565216,"endereco":"Rua Rua Dom Jo\u00e3o IV 390 2\u00ba Trazeiras","entradas_repetidas":4,"host_listings_number":1},"geometry":{"type":"Point","coordinates":[-8.602086,41.150007]}},{"type":"Feature","properties":{"id":210,"year":"18","month":"06","type":1,"ts":0.57,"mega_host_2":"False","mega_host_3":"False","freg":1,"weight":0.014492753623188406,"endereco":"Pra\u00e7a Pra\u00e7a Almeida Garrett 42 1\u00ba Frente","entradas_repetidas":2,"host_listings_number":1},"geometry":{"type":"Point","coordinates":[-8.610704,41.145506]}},{"type":"Feature","properties":{"id":211,"year":"18","month":"06","type":1,"ts":0.57,"mega_host_2":"False","mega_host_3":"False","freg":1,"weight":0.028985507246376812,"endereco":"Rua Rua Formosa, 173 - 1\u00ba Frente   ","entradas_repetidas":3,"host_listings_number":1},"geometry":{"type":"Point","coordinates":[-8.604883,41.147886]}},{"type":"Feature","properties":{"id":212,"year":"12","month":"05","type":3,"ts":0.1,"mega_host_2":"False","mega_host_3":"False","freg":2,"weight":0.0,"endereco":"Rua Rua Comandante Rodolfo de Ara\u00fajo 80  ","entradas_repetidas":1,"host_listings_number":1},"geometry":{"type":"Point","coordinates":[-8.601499,41.14969]}},{"type":"Feature","properties":{"id":213,"year":"17","month":"05","type":5,"ts":0.49,"mega_host_2":"False","mega_host_3":"False","freg":4,"weight":0.0,"endereco":"Rua Rua Zambeze 195 3 ","entradas_repetidas":1,"host_listings_number":1},"geometry":{"type":"Point","coordinates":[-8.618332,41.165444]}},{"type":"Feature","properties":{"id":214,"year":"18","month":"06","type":3,"ts":0.57,"mega_host_2":"False","mega_host_3":"False","freg":3,"weight":0.0,"endereco":"Rua Rua Jo\u00e3o de Deus 211  ","entradas_repetidas":1,"host_listings_number":1},"geometry":{"type":"Point","coordinates":[-8.636765,41.160835]}},{"type":"Feature","properties":{"id":215,"year":"17","month":"07","type":1,"ts":0.5,"mega_host_2":"False","mega_host_3":"False","freg":2,"weight":0.0,"endereco":"Rua Rua Santo Isidro 82 3\u00ba DRT FRT","entradas_repetidas":1,"host_listings_number":1},"geometry":{"type":"Point","coordinates":[-8.600657,41.15785]}},{"type":"Feature","properties":{"id":216,"year":"17","month":"07","type":1,"ts":0.5,"mega_host_2":"False","mega_host_3":"False","freg":1,"weight":0.028985507246376812,"endereco":"Rua Rua Santana 25 r/c ","entradas_repetidas":3,"host_listings_number":1},"geometry":{"type":"Point","coordinates":[-8.613351,41.142538]}},{"type":"Feature","properties":{"id":217,"year":"18","month":"09","type":4,"ts":0.59,"mega_host_2":"False","mega_host_3":"False","freg":7,"weight":0.0,"endereco":"Rua Rua Vanzeleres 285  ","entradas_repetidas":1,"host_listings_number":1},"geometry":{"type":"Point","coordinates":[-8.633053,41.16089]}},{"type":"Feature","properties":{"id":218,"year":"16","month":"10","type":1,"ts":0.44,"mega_host_2":"False","mega_host_3":"False","freg":1,"weight":0.07246376811594203,"endereco":"1\u00aa Rua Reboleira 49 2\u00ba Traseiras","entradas_repetidas":6,"host_listings_number":1},"geometry":{"type":"Point","coordinates":[-8.615421,41.140223]}},{"type":"Feature","properties":{"id":219,"year":"18","month":"05","type":2,"ts":0.57,"mega_host_2":"False","mega_host_3":"False","freg":5,"weight":0.0,"endereco":"1\u00aa Rua Rua do Crasto 573 R/C ","entradas_repetidas":1,"host_listings_number":1},"geometry":{"type":"Point","coordinates":[-8.67581,41.159763]}},{"type":"Feature","properties":{"id":220,"year":"18","month":"06","type":1,"ts":0.57,"mega_host_2":"False","mega_host_3":"False","freg":1,"weight":0.014492753623188406,"endereco":"Rua Rua Nossa Sra da F\u00e1tima  427 6\u00ba ","entradas_repetidas":2,"host_listings_number":1},"geometry":{"type":"Point","coordinates":[-8.626436,41.159112]}},{"type":"Feature","properties":{"id":221,"year":"22","month":"08","type":1,"ts":0.89,"mega_host_2":"False","mega_host_3":"False","freg":1,"weight":0.0,"endereco":"Travessa Travessa Antero de Quental 357 R/C ","entradas_repetidas":1,"host_listings_number":1},"geometry":{"type":"Point","coordinates":[-8.611268,41.160603]}},{"type":"Feature","properties":{"id":222,"year":"17","month":"08","type":1,"ts":0.51,"mega_host_2":"False","mega_host_3":"False","freg":1,"weight":0.028985507246376812,"endereco":"Rua Rua Gon\u00e7alo Crist\u00f3v\u00e3o 356 5\u00ba Drt","entradas_repetidas":3,"host_listings_number":1},"geometry":{"type":"Point","coordinates":[-8.611313,41.153709]}},{"type":"Feature","properties":{"id":223,"year":"17","month":"08","type":2,"ts":0.51,"mega_host_2":"False","mega_host_3":"False","freg":7,"weight":0.0,"endereco":"1\u00aa Travessa TRAVESSA DA PISCA 30  ","entradas_repetidas":1,"host_listings_number":1},"geometry":{"type":"Point","coordinates":[-8.63568,41.165638]}},{"type":"Feature","properties":{"id":224,"year":"21","month":"04","type":1,"ts":0.79,"mega_host_2":"False","mega_host_3":"False","freg":1,"weight":0.08695652173913043,"endereco":"Rua Rua Santa Catarina 951 4 C","entradas_repetidas":7,"host_listings_number":1},"geometry":{"type":"Point","coordinates":[-8.604799,41.154583]}},{"type":"Feature","properties":{"id":225,"year":"18","month":"02","type":1,"ts":0.55,"mega_host_2":"False","mega_host_3":"False","freg":1,"weight":0.0,"endereco":"Rua de S. Br\u00e1s 447 a 451 1\u00ba/2\u00ba ","entradas_repetidas":1,"host_listings_number":1},"geometry":{"type":"Point","coordinates":[-8.609884,41.161077]}},{"type":"Feature","properties":{"id":226,"year":"19","month":"07","type":1,"ts":0.66,"mega_host_2":"False","mega_host_3":"False","freg":1,"weight":0.2028985507246377,"endereco":"Rua Rua Mouzinho da Silveira 200 3\u00ba ","entradas_repetidas":15,"host_listings_number":1},"geometry":{"type":"Point","coordinates":[-8.612963,41.143537]}},{"type":"Feature","properties":{"id":227,"year":"18","month":"02","type":1,"ts":0.55,"mega_host_2":"False","mega_host_3":"False","freg":1,"weight":0.043478260869565216,"endereco":"Rua Rua Tom\u00e1s Gonzaga 29 1\u00ba ","entradas_repetidas":4,"host_listings_number":1},"geometry":{"type":"Point","coordinates":[-8.618811,41.142529]}},{"type":"Feature","properties":{"id":228,"year":"22","month":"06","type":1,"ts":0.88,"mega_host_2":"False","mega_host_3":"False","freg":2,"weight":0.043478260869565216,"endereco":"Rua Rua Duque Saldanha 535 2\u00ba ","entradas_repetidas":4,"host_listings_number":1},"geometry":{"type":"Point","coordinates":[-8.597721,41.146369]}},{"type":"Feature","properties":{"id":229,"year":"22","month":"06","type":3,"ts":0.88,"mega_host_2":"False","mega_host_3":"False","freg":1,"weight":0.028985507246376812,"endereco":"Rua Rua Almada 269 1,2,3 ","entradas_repetidas":3,"host_listings_number":1},"geometry":{"type":"Point","coordinates":[-8.612158,41.149038]}},{"type":"Feature","properties":{"id":230,"year":"18","month":"02","type":1,"ts":0.55,"mega_host_2":"False","mega_host_3":"False","freg":1,"weight":0.0,"endereco":"1\u00aa Rua Rua de Santa Teresa 23 1\u00ba ","entradas_repetidas":1,"host_listings_number":1},"geometry":{"type":"Point","coordinates":[-8.614295,41.147717]}},{"type":"Feature","properties":{"id":231,"year":"18","month":"02","type":1,"ts":0.55,"mega_host_2":"False","mega_host_3":"False","freg":1,"weight":0.0,"endereco":"Rua Rua Egas Moniz 49 3 Esq","entradas_repetidas":1,"host_listings_number":1},"geometry":{"type":"Point","coordinates":[-8.617033,41.162302]}},{"type":"Feature","properties":{"id":232,"year":"18","month":"02","type":3,"ts":0.55,"mega_host_2":"False","mega_host_3":"False","freg":1,"weight":0.0,"endereco":"Rua Rua S\u00e3o Br\u00e1s 12 1\u00ba ","entradas_repetidas":1,"host_listings_number":1},"geometry":{"type":"Point","coordinates":[-8.611241,41.157293]}},{"type":"Feature","properties":{"id":233,"year":"18","month":"03","type":1,"ts":0.55,"mega_host_2":"False","mega_host_3":"False","freg":1,"weight":0.014492753623188406,"endereco":"Rua do Bonjardim 920 e 922 1 ","entradas_repetidas":2,"host_listings_number":1},"geometry":{"type":"Point","coordinates":[-8.607618,41.155776]}},{"type":"Feature","properties":{"id":234,"year":"22","month":"07","type":2,"ts":0.89,"mega_host_2":"False","mega_host_3":"False","freg":1,"weight":0.0,"endereco":"Rua Rua Restaura\u00e7\u00e3o 431  ","entradas_repetidas":1,"host_listings_number":1},"geometry":{"type":"Point","coordinates":[-8.620962,41.146037]}},{"type":"Feature","properties":{"id":235,"year":"17","month":"07","type":3,"ts":0.5,"mega_host_2":"False","mega_host_3":"False","freg":3,"weight":0.0,"endereco":"Rua das Sobreiras 516  ","entradas_repetidas":1,"host_listings_number":1},"geometry":{"type":"Point","coordinates":[-8.659783,41.147121]}},{"type":"Feature","properties":{"id":236,"year":"12","month":"10","type":1,"ts":0.14,"mega_host_2":"False","mega_host_3":"False","freg":5,"weight":0.0,"endereco":"Cal\u00e7ada Cal\u00e7ada Serrubia 2 - 4      ","entradas_repetidas":1,"host_listings_number":1},"geometry":{"type":"Point","coordinates":[-8.667699,41.148002]}},{"type":"Feature","properties":{"id":237,"year":"18","month":"08","type":1,"ts":0.59,"mega_host_2":"False","mega_host_3":"False","freg":1,"weight":0.10144927536231885,"endereco":"Rua Rua Fernandes Tom\u00e1s 664 1.\u00ba  Traseiras ","entradas_repetidas":8,"host_listings_number":1},"geometry":{"type":"Point","coordinates":[-8.606374,41.149992]}},{"type":"Feature","properties":{"id":238,"year":"17","month":"08","type":1,"ts":0.51,"mega_host_2":"False","mega_host_3":"False","freg":1,"weight":0.014492753623188406,"endereco":"Rua Rua Alegria 126 2\u00ba ","entradas_repetidas":2,"host_listings_number":1},"geometry":{"type":"Point","coordinates":[-8.603959,41.148603]}},{"type":"Feature","properties":{"id":239,"year":"17","month":"07","type":2,"ts":0.51,"mega_host_2":"False","mega_host_3":"False","freg":3,"weight":0.0,"endereco":"Rua Rua Fonte de Massarelos 34  ","entradas_repetidas":1,"host_listings_number":1},"geometry":{"type":"Point","coordinates":[-8.631093,41.147377]}},{"type":"Feature","properties":{"id":240,"year":"17","month":"08","type":2,"ts":0.51,"mega_host_2":"False","mega_host_3":"False","freg":1,"weight":0.0,"endereco":"Largo Ator Dias 15  ","entradas_repetidas":1,"host_listings_number":1},"geometry":{"type":"Point","coordinates":[-8.607565,41.142265]}},{"type":"Feature","properties":{"id":241,"year":"18","month":"06","type":1,"ts":0.57,"mega_host_2":"False","mega_host_3":"False","freg":1,"weight":0.014492753623188406,"endereco":"Rua Rua Almada 567 1 esq frente","entradas_repetidas":2,"host_listings_number":1},"geometry":{"type":"Point","coordinates":[-8.612058,41.152342]}},{"type":"Feature","properties":{"id":242,"year":"17","month":"07","type":1,"ts":0.5,"mega_host_2":"False","mega_host_3":"False","freg":1,"weight":0.057971014492753624,"endereco":"Largo Largo da Lapa 34 R/C Frente","entradas_repetidas":5,"host_listings_number":1},"geometry":{"type":"Point","coordinates":[-8.612518,41.157807]}},{"type":"Feature","properties":{"id":243,"year":"17","month":"07","type":2,"ts":0.51,"mega_host_2":"False","mega_host_3":"False","freg":1,"weight":0.0,"endereco":"Rua Rua Alegria 111  ","entradas_repetidas":1,"host_listings_number":1},"geometry":{"type":"Point","coordinates":[-8.60406,41.148491]}},{"type":"Feature","properties":{"id":244,"year":"22","month":"08","type":1,"ts":0.89,"mega_host_2":"False","mega_host_3":"False","freg":2,"weight":0.0,"endereco":"Rua S\u00e3o Rosendo 259 R/C ","entradas_repetidas":1,"host_listings_number":1},"geometry":{"type":"Point","coordinates":[-8.590494,41.150642]}},{"type":"Feature","properties":{"id":245,"year":"17","month":"07","type":2,"ts":0.5,"mega_host_2":"False","mega_host_3":"False","freg":2,"weight":0.0,"endereco":"Rua Rua Duque Palmela 144  ","entradas_repetidas":1,"host_listings_number":1},"geometry":{"type":"Point","coordinates":[-8.59747,41.144066]}},{"type":"Feature","properties":{"id":246,"year":"17","month":"08","type":3,"ts":0.51,"mega_host_2":"False","mega_host_3":"False","freg":1,"weight":0.0,"endereco":"Rua Rua F\u00e1brica 18/20  ","entradas_repetidas":1,"host_listings_number":1},"geometry":{"type":"Point","coordinates":[-8.612565,41.147362]}},{"type":"Feature","properties":{"id":247,"year":"17","month":"08","type":1,"ts":0.51,"mega_host_2":"False","mega_host_3":"False","freg":1,"weight":0.21739130434782608,"endereco":"Rua Rua Doutor Alfredo de Magalh\u00e3es 68 4 Dir Tras","entradas_repetidas":16,"host_listings_number":1},"geometry":{"type":"Point","coordinates":[-8.609151,41.154661]}},{"type":"Feature","properties":{"id":248,"year":"17","month":"07","type":2,"ts":0.51,"mega_host_2":"False","mega_host_3":"False","freg":2,"weight":0.0,"endereco":"Rua Rua Dom Jo\u00e3o IV 142  ","entradas_repetidas":1,"host_listings_number":1},"geometry":{"type":"Point","coordinates":[-8.601823,41.147827]}},{"type":"Feature","properties":{"id":249,"year":"20","month":"08","type":1,"ts":0.74,"mega_host_2":"False","mega_host_3":"False","freg":1,"weight":0.07246376811594203,"endereco":"Pra\u00e7a Pra\u00e7a Carlos Alberto 93 4\u00ba Esquerdo","entradas_repetidas":6,"host_listings_number":1},"geometry":{"type":"Point","coordinates":[-8.615498,41.14827]}},{"type":"Feature","properties":{"id":250,"year":"22","month":"03","type":1,"ts":0.86,"mega_host_2":"False","mega_host_3":"False","freg":6,"weight":0.028985507246376812,"endereco":"Rua Rua Justino Teixeira 67 RC ","entradas_repetidas":3,"host_listings_number":1},"geometry":{"type":"Point","coordinates":[-8.586398,41.149668]}},{"type":"Feature","properties":{"id":251,"year":"22","month":"03","type":1,"ts":0.86,"mega_host_2":"False","mega_host_3":"False","freg":1,"weight":0.08695652173913043,"endereco":"Rua Rua Oliveiras 49 1 direito","entradas_repetidas":7,"host_listings_number":1},"geometry":{"type":"Point","coordinates":[-8.61491,41.149535]}},{"type":"Feature","properties":{"id":252,"year":"22","month":"03","type":1,"ts":0.86,"mega_host_2":"False","mega_host_3":"False","freg":2,"weight":0.043478260869565216,"endereco":"Rua Rua Duque Saldanha 535 R/C Cv ","entradas_repetidas":4,"host_listings_number":1},"geometry":{"type":"Point","coordinates":[-8.597721,41.146369]}},{"type":"Feature","properties":{"id":253,"year":"18","month":"09","type":1,"ts":0.59,"mega_host_2":"False","mega_host_3":"False","freg":5,"weight":0.0,"endereco":"Avenida do Brasil 250 1\u00ba e 2\u00ba ","entradas_repetidas":1,"host_listings_number":1},"geometry":{"type":"Point","coordinates":[-8.67956,41.15468]}},{"type":"Feature","properties":{"id":254,"year":"17","month":"08","type":1,"ts":0.51,"mega_host_2":"False","mega_host_3":"False","freg":2,"weight":0.014492753623188406,"endereco":"Rua Bar\u00e3o S\u00e3o Cosme 224 3 Esq","entradas_repetidas":2,"host_listings_number":1},"geometry":{"type":"Point","coordinates":[-8.599409,41.146653]}},{"type":"Feature","properties":{"id":255,"year":"18","month":"09","type":1,"ts":0.59,"mega_host_2":"False","mega_host_3":"False","freg":1,"weight":0.028985507246376812,"endereco":"1\u00aa Rua Rua Dr. Alves da Veiga 77 2 Frente","entradas_repetidas":3,"host_listings_number":1},"geometry":{"type":"Point","coordinates":[-8.603174,41.148558]}},{"type":"Feature","properties":{"id":256,"year":"18","month":"10","type":1,"ts":0.6,"mega_host_2":"False","mega_host_3":"False","freg":1,"weight":0.2318840579710145,"endereco":"Rua Rua Constitui\u00e7\u00e3o 2105 4\u00ba ","entradas_repetidas":17,"host_listings_number":1},"geometry":{"type":"Point","coordinates":[-8.622983,41.164036]}},{"type":"Feature","properties":{"id":257,"year":"18","month":"01","type":4,"ts":0.54,"mega_host_2":"False","mega_host_3":"False","freg":2,"weight":0.0,"endereco":"Rua Ferreira Cardoso 66  ","entradas_repetidas":1,"host_listings_number":1},"geometry":{"type":"Point","coordinates":[-8.59648,41.147112]}},{"type":"Feature","properties":{"id":258,"year":"18","month":"08","type":1,"ts":0.59,"mega_host_2":"False","mega_host_3":"False","freg":2,"weight":0.057971014492753624,"endereco":"Rua Rua Bonfim 174 2\u00ba TRAS","entradas_repetidas":5,"host_listings_number":1},"geometry":{"type":"Point","coordinates":[-8.596882,41.149221]}},{"type":"Feature","properties":{"id":259,"year":"18","month":"03","type":1,"ts":0.55,"mega_host_2":"False","mega_host_3":"False","freg":2,"weight":0.014492753623188406,"endereco":"Avenida Fernao de Magalhaes 52 5 ","entradas_repetidas":2,"host_listings_number":1},"geometry":{"type":"Point","coordinates":[-8.597773,41.150628]}},{"type":"Feature","properties":{"id":260,"year":"22","month":"03","type":1,"ts":0.86,"mega_host_2":"False","mega_host_3":"False","freg":5,"weight":0.0,"endereco":"Rua Rua Gondar\u00e9m 480 5 ","entradas_repetidas":1,"host_listings_number":1},"geometry":{"type":"Point","coordinates":[-8.680551,41.157283]}},{"type":"Feature","properties":{"id":261,"year":"22","month":"03","type":1,"ts":0.86,"mega_host_2":"False","mega_host_3":"False","freg":1,"weight":0.11594202898550725,"endereco":"Rua Rua Almada 619 3 3.1","entradas_repetidas":9,"host_listings_number":1},"geometry":{"type":"Point","coordinates":[-8.612064,41.152906]}},{"type":"Feature","properties":{"id":262,"year":"18","month":"03","type":1,"ts":0.55,"mega_host_2":"False","mega_host_3":"False","freg":2,"weight":0.0,"endereco":"Rua Bonfim 156 6\u00ba Direito","entradas_repetidas":1,"host_listings_number":1},"geometry":{"type":"Point","coordinates":[-8.597092,41.149089]}},{"type":"Feature","properties":{"id":263,"year":"18","month":"10","type":3,"ts":0.6,"mega_host_2":"False","mega_host_3":"False","freg":3,"weight":0.0,"endereco":"Rua Rua Venezuela 200 6\u00ba esq","entradas_repetidas":1,"host_listings_number":1},"geometry":{"type":"Point","coordinates":[-8.643779,41.157781]}},{"type":"Feature","properties":{"id":264,"year":"18","month":"10","type":5,"ts":0.6,"mega_host_2":"False","mega_host_3":"False","freg":1,"weight":0.0,"endereco":"Rua  Galeria de Paris 67,69,71  ","entradas_repetidas":1,"host_listings_number":1},"geometry":{"type":"Point","coordinates":[-8.614415,41.147258]}},{"type":"Feature","properties":{"id":265,"year":"22","month":"07","type":3,"ts":0.89,"mega_host_2":"False","mega_host_3":"False","freg":1,"weight":0.0,"endereco":"Rua Rua Almada 353  ","entradas_repetidas":1,"host_listings_number":1},"geometry":{"type":"Point","coordinates":[-8.612152,41.149982]}},{"type":"Feature","properties":{"id":266,"year":"21","month":"03","type":1,"ts":0.78,"mega_host_2":"False","mega_host_3":"False","freg":1,"weight":0.3188405797101449,"endereco":"Rua Rua Alexandre Herculano 352 5 54","entradas_repetidas":23,"host_listings_number":1},"geometry":{"type":"Point","coordinates":[-8.605746,41.144444]}},{"type":"Feature","properties":{"id":267,"year":"17","month":"07","type":2,"ts":0.51,"mega_host_2":"False","mega_host_3":"False","freg":1,"weight":0.0,"endereco":"Rua Rua Taipas 44  ","entradas_repetidas":1,"host_listings_number":1},"geometry":{"type":"Point","coordinates":[-8.6173,41.142814]}},{"type":"Feature","properties":{"id":268,"year":"21","month":"03","type":1,"ts":0.78,"mega_host_2":"False","mega_host_3":"False","freg":1,"weight":0.2463768115942029,"endereco":"Rua Rua Entreparedes 62 2.\u00ba ","entradas_repetidas":18,"host_listings_number":1},"geometry":{"type":"Point","coordinates":[-8.605598,41.145371]}},{"type":"Feature","properties":{"id":269,"year":"18","month":"09","type":3,"ts":0.59,"mega_host_2":"False","mega_host_3":"False","freg":6,"weight":0.0,"endereco":"Rua Rua Monte da Esta\u00e7\u00e3o 105 e 115  ","entradas_repetidas":1,"host_listings_number":1},"geometry":{"type":"Point","coordinates":[-8.585726,41.151512]}},{"type":"Feature","properties":{"id":270,"year":"22","month":"06","type":1,"ts":0.88,"mega_host_2":"False","mega_host_3":"False","freg":1,"weight":0.14492753623188406,"endereco":"Avenida Avenida Rodrigues de Freitas 258 1 1.1","entradas_repetidas":11,"host_listings_number":1},"geometry":{"type":"Point","coordinates":[-8.603461,41.145657]}},{"type":"Feature","properties":{"id":271,"year":"18","month":"06","type":2,"ts":0.57,"mega_host_2":"False","mega_host_3":"False","freg":1,"weight":0.0,"endereco":"Rua Rua Breiner 384  ","entradas_repetidas":1,"host_listings_number":1},"geometry":{"type":"Point","coordinates":[-8.622048,41.150587]}},{"type":"Feature","properties":{"id":272,"year":"22","month":"01","type":2,"ts":0.85,"mega_host_2":"False","mega_host_3":"False","freg":1,"weight":0.07246376811594203,"endereco":"Rua Rua Gl\u00f3ria 129 casa 3 ","entradas_repetidas":6,"host_listings_number":1},"geometry":{"type":"Point","coordinates":[-8.6137,41.15881]}},{"type":"Feature","properties":{"id":273,"year":"20","month":"12","type":3,"ts":0.77,"mega_host_2":"False","mega_host_3":"False","freg":2,"weight":0.0,"endereco":"Rua Rua Duque Saldanha 290  ","entradas_repetidas":1,"host_listings_number":1},"geometry":{"type":"Point","coordinates":[-8.596753,41.144367]}},{"type":"Feature","properties":{"id":274,"year":"18","month":"06","type":1,"ts":0.57,"mega_host_2":"False","mega_host_3":"False","freg":4,"weight":0.0,"endereco":"Rua Rua Antero de Quental 955 1\u00ba dt\u00ba","entradas_repetidas":1,"host_listings_number":1},"geometry":{"type":"Point","coordinates":[-8.610969,41.166698]}},{"type":"Feature","properties":{"id":275,"year":"22","month":"01","type":1,"ts":0.85,"mega_host_2":"False","mega_host_3":"False","freg":1,"weight":0.34782608695652173,"endereco":"Rua Rua Doutor Ricardo Jorge 96 2.9 ","entradas_repetidas":25,"host_listings_number":1},"geometry":{"type":"Point","coordinates":[-8.612233,41.150371]}},{"type":"Feature","properties":{"id":276,"year":"21","month":"01","type":1,"ts":0.77,"mega_host_2":"False","mega_host_3":"False","freg":1,"weight":0.028985507246376812,"endereco":"Rua Rua Santa Catarina 730 3\u00ba Dt\u00ba","entradas_repetidas":3,"host_listings_number":1},"geometry":{"type":"Point","coordinates":[-8.604663,41.152561]}},{"type":"Feature","properties":{"id":277,"year":"17","month":"07","type":1,"ts":0.51,"mega_host_2":"False","mega_host_3":"False","freg":2,"weight":0.0,"endereco":"Rua Rua Doutor Carlos Passos 157 3 d","entradas_repetidas":1,"host_listings_number":1},"geometry":{"type":"Point","coordinates":[-8.598068,41.154266]}},{"type":"Feature","properties":{"id":278,"year":"22","month":"02","type":4,"ts":0.85,"mega_host_2":"False","mega_host_3":"False","freg":1,"weight":0.0,"endereco":"Rua Rua Escura 23/25/27  ","entradas_repetidas":1,"host_listings_number":1},"geometry":{"type":"Point","coordinates":[-8.611618,41.143377]}},{"type":"Feature","properties":{"id":279,"year":"21","month":"02","type":2,"ts":0.78,"mega_host_2":"False","mega_host_3":"False","freg":5,"weight":0.0,"endereco":"Travessa Travessa Passeio Alegre 12  ","entradas_repetidas":1,"host_listings_number":1},"geometry":{"type":"Point","coordinates":[-8.672296,41.149766]}},{"type":"Feature","properties":{"id":280,"year":"20","month":"10","type":2,"ts":0.75,"mega_host_2":"False","mega_host_3":"False","freg":5,"weight":0.0,"endereco":"Avenida Avenida Montevideu 818 e 834  ","entradas_repetidas":1,"host_listings_number":1},"geometry":{"type":"Point","coordinates":[-8.6872,41.166341]}},{"type":"Feature","properties":{"id":281,"year":"21","month":"01","type":1,"ts":0.78,"mega_host_2":"False","mega_host_3":"False","freg":1,"weight":0.08695652173913043,"endereco":"Rua Rua Santa Catarina 1075 2 T","entradas_repetidas":7,"host_listings_number":1},"geometry":{"type":"Point","coordinates":[-8.604715,41.155768]}},{"type":"Feature","properties":{"id":282,"year":"21","month":"01","type":1,"ts":0.77,"mega_host_2":"False","mega_host_3":"False","freg":1,"weight":0.028985507246376812,"endereco":"Rua Rua Mercadores 75 6 M","entradas_repetidas":3,"host_listings_number":1},"geometry":{"type":"Point","coordinates":[-8.613291,41.141846]}},{"type":"Feature","properties":{"id":283,"year":"17","month":"08","type":2,"ts":0.51,"mega_host_2":"False","mega_host_3":"False","freg":5,"weight":0.0,"endereco":"Travessa Travessa do Alto da Vila 11, 13, 15  ","entradas_repetidas":1,"host_listings_number":1},"geometry":{"type":"Point","coordinates":[-8.6757,41.150445]}},{"type":"Feature","properties":{"id":284,"year":"17","month":"08","type":1,"ts":0.51,"mega_host_2":"False","mega_host_3":"False","freg":1,"weight":0.014492753623188406,"endereco":"Rua Rua Boavista 288 3\u00ba Esq\u00ba/Tras.","entradas_repetidas":2,"host_listings_number":1},"geometry":{"type":"Point","coordinates":[-8.61669,41.155975]}},{"type":"Feature","properties":{"id":285,"year":"18","month":"09","type":1,"ts":0.59,"mega_host_2":"False","mega_host_3":"False","freg":1,"weight":0.0,"endereco":"Rua Rua Nossa Senhora F\u00e1tima 474, 476 2 DT","entradas_repetidas":1,"host_listings_number":1},"geometry":{"type":"Point","coordinates":[-8.627454,41.1587]}},{"type":"Feature","properties":{"id":286,"year":"17","month":"07","type":1,"ts":0.51,"mega_host_2":"False","mega_host_3":"False","freg":1,"weight":0.028985507246376812,"endereco":"Pra\u00e7a Pra\u00e7a Marqu\u00eas Pombal 179 1\u00ba  Tr\u00e1s","entradas_repetidas":3,"host_listings_number":1},"geometry":{"type":"Point","coordinates":[-8.604689,41.161495]}},{"type":"Feature","properties":{"id":287,"year":"17","month":"07","type":1,"ts":0.51,"mega_host_2":"False","mega_host_3":"False","freg":1,"weight":0.014492753623188406,"endereco":"Rua Rua de Sacadura Cabral 116 2.\u00ba Esq. ","entradas_repetidas":2,"host_listings_number":1},"geometry":{"type":"Point","coordinates":[-8.620542,41.155609]}},{"type":"Feature","properties":{"id":288,"year":"17","month":"08","type":1,"ts":0.51,"mega_host_2":"False","mega_host_3":"False","freg":1,"weight":0.028985507246376812,"endereco":"Rua Rua M\u00e1rtires da Liberdade 174 3\u00ba Frente","entradas_repetidas":3,"host_listings_number":1},"geometry":{"type":"Point","coordinates":[-8.613668,41.151898]}},{"type":"Feature","properties":{"id":289,"year":"17","month":"07","type":1,"ts":0.51,"mega_host_2":"False","mega_host_3":"False","freg":1,"weight":0.10144927536231885,"endereco":"Rua Rua 31 de Janeiro 165 3 Frt","entradas_repetidas":8,"host_listings_number":1},"geometry":{"type":"Point","coordinates":[-8.608112,41.146221]}},{"type":"Feature","properties":{"id":290,"year":"16","month":"07","type":1,"ts":0.43,"mega_host_2":"False","mega_host_3":"False","freg":1,"weight":0.0,"endereco":"1\u00ba Largo Largo da Ramada Alta 43 3.\u00ba esq.","entradas_repetidas":1,"host_listings_number":1},"geometry":{"type":"Point","coordinates":[-8.621142,41.160355]}},{"type":"Feature","properties":{"id":291,"year":"17","month":"07","type":1,"ts":0.5,"mega_host_2":"False","mega_host_3":"False","freg":1,"weight":0.11594202898550725,"endereco":"Largo Largo L\u00f3ios 25  5 frente Esq","entradas_repetidas":9,"host_listings_number":1},"geometry":{"type":"Point","coordinates":[-8.612056,41.145532]}},{"type":"Feature","properties":{"id":292,"year":"22","month":"10","type":1,"ts":0.91,"mega_host_2":"False","mega_host_3":"False","freg":2,"weight":0.0,"endereco":"Rua Rua Moreira 178 1\u00ba direito fr","entradas_repetidas":1,"host_listings_number":1},"geometry":{"type":"Point","coordinates":[-8.601306,41.15323]}},{"type":"Feature","properties":{"id":293,"year":"17","month":"07","type":2,"ts":0.5,"mega_host_2":"False","mega_host_3":"False","freg":1,"weight":0.0,"endereco":"Rua Rua Fontinha 34  ","entradas_repetidas":1,"host_listings_number":1},"geometry":{"type":"Point","coordinates":[-8.605026,41.156068]}},{"type":"Feature","properties":{"id":294,"year":"21","month":"09","type":1,"ts":0.82,"mega_host_2":"False","mega_host_3":"False","freg":1,"weight":0.11594202898550725,"endereco":"Rua Rua Taipas 73 3 CENTRO","entradas_repetidas":9,"host_listings_number":1},"geometry":{"type":"Point","coordinates":[-8.617467,41.143569]}},{"type":"Feature","properties":{"id":295,"year":"21","month":"04","type":3,"ts":0.79,"mega_host_2":"False","mega_host_3":"False","freg":1,"weight":0.0,"endereco":"Avenida Avenida Fran\u00e7a 86 1\u00ba e 2\u00ba esquerdo","entradas_repetidas":1,"host_listings_number":1},"geometry":{"type":"Point","coordinates":[-8.628475,41.159714]}},{"type":"Feature","properties":{"id":296,"year":"18","month":"09","type":1,"ts":0.59,"mega_host_2":"False","mega_host_3":"False","freg":2,"weight":0.0,"endereco":"Rua Rua Coelho Neto 63 4\u00ba TRASEIRO","entradas_repetidas":1,"host_listings_number":1},"geometry":{"type":"Point","coordinates":[-8.601035,41.148149]}},{"type":"Feature","properties":{"id":297,"year":"23","month":"01","type":1,"ts":0.92,"mega_host_2":"False","mega_host_3":"False","freg":1,"weight":0.07246376811594203,"endereco":"Largo Largo Arcos da Ribeira  2\u00b0 FR","entradas_repetidas":6,"host_listings_number":1},"geometry":{"type":"Point","coordinates":[-8.610699,41.141023]}},{"type":"Feature","properties":{"id":298,"year":"18","month":"09","type":1,"ts":0.59,"mega_host_2":"False","mega_host_3":"False","freg":1,"weight":0.08695652173913043,"endereco":"Rua Duque de Loul\u00e9 205 2 2","entradas_repetidas":7,"host_listings_number":1},"geometry":{"type":"Point","coordinates":[-8.604761,41.144746]}},{"type":"Feature","properties":{"id":299,"year":"18","month":"09","type":1,"ts":0.59,"mega_host_2":"False","mega_host_3":"False","freg":1,"weight":0.08695652173913043,"endereco":"Rua Rua Tr\u00e1s 31 2\u00ba Hab. 4.2","entradas_repetidas":7,"host_listings_number":1},"geometry":{"type":"Point","coordinates":[-8.612988,41.145644]}},{"type":"Feature","properties":{"id":300,"year":"17","month":"07","type":1,"ts":0.5,"mega_host_2":"False","mega_host_3":"False","freg":7,"weight":0.0,"endereco":"1\u00aa Rua Adelaide Estrada 201 6 C","entradas_repetidas":1,"host_listings_number":1},"geometry":{"type":"Point","coordinates":[-8.637618,41.171155]}},{"type":"Feature","properties":{"id":301,"year":"21","month":"05","type":1,"ts":0.8,"mega_host_2":"False","mega_host_3":"False","freg":1,"weight":0.028985507246376812,"endereco":"Rua Rua Cedofeita 305 2 frente","entradas_repetidas":3,"host_listings_number":1},"geometry":{"type":"Point","coordinates":[-8.618093,41.152361]}},{"type":"Feature","properties":{"id":302,"year":"18","month":"09","type":1,"ts":0.59,"mega_host_2":"False","mega_host_3":"False","freg":1,"weight":0.2753623188405797,"endereco":"Rua Rua Ceuta 44 2 esq. post.","entradas_repetidas":20,"host_listings_number":1},"geometry":{"type":"Point","coordinates":[-8.613742,41.148385]}},{"type":"Feature","properties":{"id":303,"year":"17","month":"07","type":1,"ts":0.5,"mega_host_2":"False","mega_host_3":"False","freg":2,"weight":0.043478260869565216,"endereco":"Avenida Avenida Rodrigues de Freitas 40 5 Dto.","entradas_repetidas":4,"host_listings_number":1},"geometry":{"type":"Point","coordinates":[-8.596761,41.146107]}},{"type":"Feature","properties":{"id":304,"year":"16","month":"11","type":1,"ts":0.46,"mega_host_2":"False","mega_host_3":"False","freg":2,"weight":0.014492753623188406,"endereco":"Rua Rua Pinto Bessa 307 3.\u00ba ","entradas_repetidas":2,"host_listings_number":1},"geometry":{"type":"Point","coordinates":[-8.589642,41.149645]}},{"type":"Feature","properties":{"id":305,"year":"21","month":"10","type":1,"ts":0.83,"mega_host_2":"False","mega_host_3":"False","freg":1,"weight":0.07246376811594203,"endereco":"Rua Rua Clemente Meneres 61 2 Frt","entradas_repetidas":6,"host_listings_number":1},"geometry":{"type":"Point","coordinates":[-8.619338,41.1486]}},{"type":"Feature","properties":{"id":306,"year":"17","month":"07","type":3,"ts":0.5,"mega_host_2":"False","mega_host_3":"False","freg":1,"weight":0.0,"endereco":"1\u00ba Largo Largo    ","entradas_repetidas":1,"host_listings_number":1},"geometry":{"type":"Point","coordinates":[-8.612655,41.157606]}},{"type":"Feature","properties":{"id":307,"year":"18","month":"11","type":2,"ts":0.6,"mega_host_2":"False","mega_host_3":"False","freg":5,"weight":0.014492753623188406,"endereco":"1\u00aa Rua Marechal Saldanha 948  ","entradas_repetidas":2,"host_listings_number":1},"geometry":{"type":"Point","coordinates":[-8.683019,41.162368]}},{"type":"Feature","properties":{"id":308,"year":"15","month":"06","type":1,"ts":0.35,"mega_host_2":"False","mega_host_3":"False","freg":1,"weight":0.0,"endereco":"Rua Restaura\u00e7\u00e3o 463 2\u00ba ","entradas_repetidas":1,"host_listings_number":1},"geometry":{"type":"Point","coordinates":[-8.620576,41.146065]}},{"type":"Feature","properties":{"id":309,"year":"22","month":"02","type":1,"ts":0.86,"mega_host_2":"False","mega_host_3":"False","freg":1,"weight":0.0,"endereco":"Rua Rua Ricardo Severo 89 R\u00e9s/ch\u00e3o C Fra\u00e7\u00e3o E","entradas_repetidas":1,"host_listings_number":1},"geometry":{"type":"Point","coordinates":[-8.625336,41.156367]}},